$GPRMC,131549.00,A,3728.72573,N,12657.10147,E,0.185,,020524,,,A*78
$GPVTG,,T,,M,0.185,N,0.343,K,A*2B
$GPGGA,131549.00,3728.72573,N,12657.10147,E,1,06,1.39,71.6,M,18.4,M,,*69
$GPGSA,A,3,18,15,05,13,24,23,,,,,,,2.99,1.39,2.64*06
$GPGSV,3,1,11,05,38,110,27,10,03,303,,13,37,049,23,14,07,053,*7C
$GPGSV,3,2,11,15,66,023,33,18,57,269,27,20,11,124,13,22,10,072,22*7D
$GPGSV,3,3,11,23,34,312,20,24,59,182,18,29,01,217,*4B
$GPGLL,3728.72573,N,12657.10147,E,131549.00,A,A*6C
$GPRMC,131550.00,A,3728.72569,N,12657.10176,E,0.104,,020524,,,A*70
$GPVTG,,T,,M,0.104,N,0.192,K,A*2C
$GPGGA,131550.00,3728.72569,N,12657.10176,E,1,06,1.39,72.2,M,18.4,M,,*6F
$GPGSA,A,3,18,15,05,13,24,23,,,,,,,2.99,1.39,2.64*06
$GPGSV,3,1,11,05,38,110,26,10,03,303,,13,37,049,22,14,07,053,*7C
$GPGSV,3,2,11,15,66,023,33,18,57,269,27,20,11,124,15,22,10,072,22*7B
$GPGSV,3,3,11,23,34,312,20,24,59,182,17,29,01,217,*44
$GPGLL,3728.72569,N,12657.10176,E,131550.00,A,A*6D
$GPRMC,131551.00,A,3728.72569,N,12657.10197,E,0.024,,020524,,,A*7D
$GPVTG,,T,,M,0.024,N,0.044,K,A*25
$GPGGA,131551.00,3728.72569,N,12657.10197,E,1,06,1.39,72.5,M,18.4,M,,*66
$GPGSA,A,3,18,15,05,13,24,23,,,,,,,2.99,1.39,2.64*06
$GPGSV,3,1,11,05,38,110,26,10,03,303,,13,37,049,22,14,07,053,*7C
$GPGSV,3,2,11,15,66,023,33,18,57,269,26,20,11,124,08,22,10,072,21*75
$GPGSV,3,3,11,23,34,312,20,24,59,182,18,29,01,217,*4B
$GPGLL,3728.72569,N,12657.10197,E,131551.00,A,A*63
$GPRMC,131552.00,A,3728.72574,N,12657.10226,E,0.210,,020524,,,A*7E
$GPVTG,,T,,M,0.210,N,0.389,K,A*22
$GPGGA,131552.00,3728.72574,N,12657.10226,E,1,06,1.39,73.1,M,18.4,M,,*65
$GPGSA,A,3,18,15,05,13,24,23,,,,,,,2.99,1.39,2.64*06
$GPGSV,3,1,11,05,38,110,26,10,03,303,,13,37,049,24,14,07,053,*7A
$GPGSV,3,2,11,15,66,023,31,18,57,269,24,20,11,124,14,22,10,072,23*7A
$GPGSV,3,3,11,23,34,312,20,24,59,182,17,29,01,217,*44
$GPGLL,3728.72574,N,12657.10226,E,131552.00,A,A*65
$GPRMC,131553.00,A,3728.72586,N,12657.10246,E,0.331,,020524,,,A*76
$GPVTG,,T,,M,0.331,N,0.614,K,A*21
$GPGGA,131553.00,3728.72586,N,12657.10246,E,1,06,1.39,73.4,M,18.4,M,,*6A
$GPGSA,A,3,18,15,05,13,24,23,,,,,,,2.99,1.39,2.64*06
$GPGSV,3,1,11,05,38,110,25,10,03,303,,13,37,049,23,14,07,053,*7E
$GPGSV,3,2,11,15,66,023,30,18,57,269,25,20,11,124,17,22,10,072,22*78
$GPGSV,3,3,11,23,34,312,19,24,59,182,17,29,01,217,*4E
$GPGLL,3728.72586,N,12657.10246,E,131553.00,A,A*6F
$GPRMC,131554.00,A,3728.72596,N,12657.10270,E,0.425,,020524,,,A*77
$GPVTG,,T,,M,0.425,N,0.788,K,A*27
$GPGGA,131554.00,3728.72596,N,12657.10270,E,1,06,1.39,73.8,M,18.4,M,,*65
$GPGSA,A,3,18,15,05,13,24,23,,,,,,,2.99,1.39,2.64*06
$GPGSV,3,1,11,05,38,110,22,10,03,303,,13,37,049,23,14,07,053,*79
$GPGSV,3,2,11,15,66,023,29,18,57,269,25,20,11,124,18,22,10,072,22*7F
$GPGSV,3,3,11,23,34,312,20,24,59,182,18,29,01,217,*4B
$GPGLL,3728.72596,N,12657.10270,E,131554.00,A,A*6C
$GPRMC,131555.00,A,3728.72614,N,12657.10283,E,0.368,,020524,,,A*7D
$GPVTG,,T,,M,0.368,N,0.682,K,A*22
$GPGGA,131555.00,3728.72614,N,12657.10283,E,1,06,1.39,74.2,M,18.4,M,,*6C
$GPGSA,A,3,18,15,05,13,24,23,,,,,,,2.99,1.39,2.64*06
$GPGSV,3,1,11,05,38,110,22,10,03,303,,13,37,049,25,14,07,053,*7F
$GPGSV,3,2,11,15,66,023,30,18,57,269,25,20,11,124,19,22,10,072,24*70
$GPGSV,3,3,11,23,34,312,21,24,59,182,18,29,01,217,*4A
$GPGLL,3728.72614,N,12657.10283,E,131555.00,A,A*68
$GPRMC,131556.00,A,3728.72614,N,12657.10317,E,0.294,,020524,,,A*70
$GPVTG,,T,,M,0.294,N,0.544,K,A*29
$GPGGA,131556.00,3728.72614,N,12657.10317,E,1,06,1.39,74.6,M,18.4,M,,*67
$GPGSA,A,3,18,15,05,13,24,23,,,,,,,2.99,1.39,2.64*06
$GPGSV,3,1,11,05,38,110,25,10,03,303,,13,37,049,24,14,07,053,*79
$GPGSV,3,2,11,15,66,023,31,18,57,269,25,20,11,124,19,22,10,072,25*70
$GPGSV,3,3,11,23,34,312,21,24,59,182,18,29,01,217,*4A
$GPGLL,3728.72614,N,12657.10317,E,131556.00,A,A*67
$GPRMC,131557.00,A,3728.72618,N,12657.10350,E,0.391,,020524,,,A*7A
$GPVTG,,T,,M,0.391,N,0.723,K,A*2E
$GPGGA,131557.00,3728.72618,N,12657.10350,E,1,06,1.39,74.9,M,18.4,M,,*66
$GPGSA,A,3,18,15,05,13,24,23,,,,,,,2.99,1.39,2.64*06
$GPGSV,3,1,11,05,38,110,26,10,03,303,,13,37,049,21,14,07,053,*7F
$GPGSV,3,2,11,15,66,023,30,18,57,269,25,20,11,124,18,22,10,072,24*71
$GPGSV,3,3,11,23,34,312,20,24,59,182,17,29,01,217,*44
$GPGLL,3728.72618,N,12657.10350,E,131557.00,A,A*69
$GPRMC,131558.00,A,3728.72630,N,12657.10396,E,0.558,,020524,,,A*76
$GPVTG,,T,,M,0.558,N,1.033,K,A*2A
$GPGGA,131558.00,3728.72630,N,12657.10396,E,1,06,1.39,75.3,M,18.4,M,,*62
$GPGSA,A,3,18,15,05,13,24,23,,,,,,,2.99,1.39,2.64*06
$GPGSV,3,1,11,05,38,110,27,10,03,303,,13,37,049,19,14,07,053,*75
$GPGSV,3,2,11,15,66,023,30,18,57,269,24,20,11,124,19,22,10,072,25*70
$GPGSV,3,3,11,23,34,312,21,24,59,182,16,29,01,217,*44
$GPGLL,3728.72630,N,12657.10396,E,131558.00,A,A*66
$GPRMC,131559.00,A,3728.72637,N,12657.10435,E,0.460,,020524,,,A*74
$GPVTG,,T,,M,0.460,N,0.852,K,A*2E
$GPGGA,131559.00,3728.72637,N,12657.10435,E,1,06,1.39,76.0,M,18.4,M,,*6A
$GPGSA,A,3,18,15,05,13,24,23,,,,,,,2.99,1.39,2.64*06
$GPGSV,3,1,11,05,38,110,27,10,03,303,,13,37,049,17,14,07,053,*7B
$GPGSV,3,2,11,15,66,023,30,18,57,269,24,20,11,124,20,22,10,072,26*79
$GPGSV,3,3,11,23,34,312,22,24,59,182,16,29,01,217,*47
$GPGLL,3728.72637,N,12657.10435,E,131559.00,A,A*6E
$GPRMC,131600.00,A,3728.72634,N,12657.10457,E,0.289,,020524,,,A*7D
$GPVTG,,T,,M,0.289,N,0.535,K,A*23
$GPGGA,131600.00,3728.72634,N,12657.10457,E,1,06,1.39,76.4,M,18.4,M,,*66
$GPGSA,A,3,18,15,05,13,24,23,,,,,,,2.99,1.39,2.65*07
$GPGSV,3,1,11,05,38,110,27,10,03,303,,13,37,049,15,14,07,053,*79
$GPGSV,3,2,11,15,66,023,31,18,57,269,24,20,11,124,20,22,10,072,25*7B
$GPGSV,3,3,11,23,34,312,23,24,59,182,17,29,01,217,*47
$GPGLL,3728.72634,N,12657.10457,E,131600.00,A,A*66
$GPRMC,131601.00,A,3728.72640,N,12657.10489,E,0.277,,020524,,,A*7D
$GPVTG,,T,,M,0.277,N,0.514,K,A*21
$GPGGA,131601.00,3728.72640,N,12657.10489,E,1,06,1.39,76.9,M,18.4,M,,*6A
$GPGSA,A,3,18,15,05,13,24,23,,,,,,,2.99,1.39,2.65*07
$GPGSV,3,1,11,05,38,110,27,10,03,303,,13,37,049,13,14,07,053,*7F
$GPGSV,3,2,11,15,66,023,31,18,57,269,23,20,11,124,20,22,10,072,25*7C
$GPGSV,3,3,11,23,34,312,24,24,59,182,18,29,01,217,*4F
$GPGLL,3728.72640,N,12657.10489,E,131601.00,A,A*67
$GPRMC,131602.00,A,3728.72656,N,12657.10531,E,0.431,,020524,,,A*7F
$GPVTG,,T,,M,0.431,N,0.798,K,A*23
$GPGGA,131602.00,3728.72656,N,12657.10531,E,1,06,1.39,77.5,M,18.4,M,,*61
$GPGSA,A,3,18,15,05,13,24,23,,,,,,,2.99,1.39,2.65*07
$GPGSV,3,1,11,05,38,110,28,10,03,303,,13,37,049,13,14,07,053,*70
$GPGSV,3,2,11,15,66,023,31,18,57,269,23,20,11,124,21,22,10,072,25*7D
$GPGSV,3,3,11,23,34,312,24,24,59,182,19,29,01,217,*4E
$GPGLL,3728.72656,N,12657.10531,E,131602.00,A,A*61
$GPRMC,131603.00,A,3728.72658,N,12657.10570,E,0.421,,020524,,,A*74
$GPVTG,,T,,M,0.421,N,0.780,K,A*2B
$GPGGA,131603.00,3728.72658,N,12657.10570,E,1,06,1.39,78.4,M,18.4,M,,*65
$GPGSA,A,3,18,15,05,13,24,23,,,,,,,2.99,1.39,2.65*07
$GPGSV,3,1,11,05,38,110,27,10,03,303,,13,37,049,10,14,07,053,*7C
$GPGSV,3,2,11,15,66,023,30,18,57,269,22,20,11,124,21,22,10,072,25*7D
$GPGSV,3,3,11,23,34,312,24,24,59,182,20,29,01,217,*44
$GPGLL,3728.72658,N,12657.10570,E,131603.00,A,A*6B
$GPRMC,131604.00,A,3728.72666,N,12657.10610,E,0.388,,020524,,,A*7F
$GPVTG,,T,,M,0.388,N,0.718,K,A*2E
$GPGGA,131604.00,3728.72666,N,12657.10610,E,1,06,1.39,79.2,M,18.4,M,,*6D
$GPGSA,A,3,18,15,05,13,24,23,,,,,,,2.99,1.39,2.65*07
$GPGSV,3,1,11,05,38,110,27,10,03,303,,13,37,049,10,14,07,053,*7C
$GPGSV,3,2,11,15,66,023,30,18,57,269,23,20,11,124,20,22,10,072,25*7D
$GPGSV,3,3,11,23,34,312,24,24,59,182,21,29,01,217,*45
$GPGLL,3728.72666,N,12657.10610,E,131604.00,A,A*64
$GPRMC,131605.00,A,3728.72670,N,12657.10640,E,0.308,,020524,,,A*74
$GPVTG,,T,,M,0.308,N,0.571,K,A*2B
$GPGGA,131605.00,3728.72670,N,12657.10640,E,1,05,1.67,79.8,M,18.4,M,,*6C
$GPGSA,A,3,18,15,05,24,23,,,,,,,,3.19,1.67,2.72*01
$GPGSV,3,1,11,05,38,110,27,10,03,303,,13,37,049,08,14,07,053,*75
$GPGSV,3,2,11,15,66,023,30,18,57,269,22,20,11,124,19,22,10,072,25*76
$GPGSV,3,3,11,23,34,312,24,24,59,182,21,29,01,217,*45
$GPGLL,3728.72670,N,12657.10640,E,131605.00,A,A*67
$GPRMC,131606.00,A,3728.72702,N,12657.10704,E,0.589,,020524,,,A*7D
$GPVTG,,T,,M,0.589,N,1.090,K,A*2F
$GPGGA,131606.00,3728.72702,N,12657.10704,E,1,05,1.67,80.5,M,18.4,M,,*61
$GPGSA,A,3,18,15,05,24,23,,,,,,,,3.19,1.67,2.72*01
$GPGSV,3,1,11,05,38,110,27,10,03,303,,13,37,049,08,14,07,053,*75
$GPGSV,3,2,11,15,66,023,30,18,57,269,22,20,11,124,19,22,10,072,25*76
$GPGSV,3,3,11,23,34,312,23,24,59,182,20,29,01,217,*43
$GPGLL,3728.72702,N,12657.10704,E,131606.00,A,A*61
$GPRMC,131607.00,A,3728.72695,N,12657.10726,E,0.374,,020524,,,A*77
$GPVTG,,T,,M,0.374,N,0.693,K,A*2F
$GPGGA,131607.00,3728.72695,N,12657.10726,E,1,05,1.67,81.4,M,18.4,M,,*6F
$GPGSA,A,3,18,15,05,24,23,,,,,,,,3.19,1.67,2.72*01
$GPGSV,3,1,11,05,38,110,26,10,03,303,,13,36,050,08,14,07,053,*7D
$GPGSV,3,2,11,15,66,023,29,18,57,269,21,20,11,124,18,22,10,072,25*7C
$GPGSV,3,3,11,23,34,312,23,24,59,182,21,29,01,217,*42
$GPGLL,3728.72695,N,12657.10726,E,131607.00,A,A*6F
$GPRMC,131608.00,A,3728.72694,N,12657.10753,E,0.325,,020524,,,A*7F
$GPVTG,,T,,M,0.325,N,0.602,K,A*23
$GPGGA,131608.00,3728.72694,N,12657.10753,E,1,06,1.39,81.9,M,18.4,M,,*66
$GPGSA,A,3,18,15,05,13,24,23,,,,,,,2.99,1.39,2.65*07
$GPGSV,3,1,11,05,38,110,26,10,03,303,,13,36,050,08,14,07,053,*7D
$GPGSV,3,2,11,15,66,023,29,18,57,269,21,20,11,124,19,22,10,072,24*7C
$GPGSV,3,3,11,23,34,312,23,24,59,182,21,29,01,217,*42
$GPGLL,3728.72694,N,12657.10753,E,131608.00,A,A*63
$GPRMC,131609.00,A,3728.72707,N,12657.10791,E,0.351,,020524,,,A*78
$GPVTG,,T,,M,0.351,N,0.650,K,A*27
$GPGGA,131609.00,3728.72707,N,12657.10791,E,1,06,1.39,82.5,M,18.4,M,,*6D
$GPGSA,A,3,18,15,05,13,24,23,,,,,,,2.99,1.39,2.65*07
$GPGSV,3,1,11,05,38,110,26,10,03,303,,13,36,050,08,14,07,053,*7D
$GPGSV,3,2,11,15,66,024,29,18,57,269,21,20,11,124,18,22,10,072,25*7B
$GPGSV,3,3,11,23,34,312,22,24,59,182,20,29,01,217,*42
$GPGLL,3728.72707,N,12657.10791,E,131609.00,A,A*67
$GPRMC,131610.00,A,3728.72715,N,12657.10821,E,0.321,,020524,,,A*70
$GPVTG,,T,,M,0.321,N,0.595,K,A*2A
$GPGGA,131610.00,3728.72715,N,12657.10821,E,1,05,1.67,83.2,M,18.4,M,,*6C
$GPGSA,A,3,18,15,05,24,23,,,,,,,,3.19,1.67,2.72*01
$GPGSV,3,1,11,05,38,110,26,10,03,303,,13,36,050,08,14,07,053,*7D
$GPGSV,3,2,11,15,66,024,30,18,57,269,20,20,11,124,18,22,10,072,25*72
$GPGSV,3,3,11,23,34,312,22,24,59,182,20,29,01,217,*42
$GPGLL,3728.72715,N,12657.10821,E,131610.00,A,A*68
$GPRMC,131611.00,A,3728.72729,N,12657.10867,E,0.500,,020524,,,A*79
$GPVTG,,T,,M,0.500,N,0.926,K,A*2B
$GPGGA,131611.00,3728.72729,N,12657.10867,E,1,05,1.67,83.8,M,18.4,M,,*6A
$GPGSA,A,3,18,15,05,24,23,,,,,,,,3.19,1.67,2.72*01
$GPGSV,3,1,11,05,38,110,26,10,03,303,,13,36,050,08,14,07,053,*7D
$GPGSV,3,2,11,15,66,024,30,18,57,269,20,20,11,124,18,22,10,072,25*72
$GPGSV,3,3,11,23,34,312,22,24,59,182,20,29,01,217,*42
$GPGLL,3728.72729,N,12657.10867,E,131611.00,A,A*64
$GPRMC,131612.00,A,3728.72733,N,12657.10900,E,0.499,,020524,,,A*70
$GPVTG,,T,,M,0.499,N,0.924,K,A*28
$GPGGA,131612.00,3728.72733,N,12657.10900,E,1,05,1.67,84.3,M,18.4,M,,*6E
$GPGSA,A,3,18,15,05,24,23,,,,,,,,3.19,1.67,2.72*01
$GPGSV,3,1,11,05,38,110,26,10,03,303,,13,36,050,08,14,07,053,*7D
$GPGSV,3,2,11,15,66,024,30,18,57,269,20,20,11,124,18,22,10,072,25*72
$GPGSV,3,3,11,23,34,312,23,24,59,182,20,29,01,217,*43
$GPGLL,3728.72733,N,12657.10900,E,131612.00,A,A*6C
$GPRMC,131613.00,A,3728.72754,N,12657.10940,E,0.549,,020524,,,A*78
$GPVTG,,T,,M,0.549,N,1.017,K,A*2C
$GPGGA,131613.00,3728.72754,N,12657.10940,E,1,05,1.67,84.7,M,18.4,M,,*6E
$GPGSA,A,3,18,15,05,24,23,,,,,,,,3.19,1.67,2.72*01
$GPGSV,3,1,11,05,38,110,26,10,03,303,,13,36,050,08,14,07,053,*7D
$GPGSV,3,2,11,15,66,024,31,18,57,269,20,20,10,124,17,22,10,072,25*7D
$GPGSV,3,3,11,23,34,312,22,24,59,182,20,29,01,217,*42
$GPGLL,3728.72754,N,12657.10940,E,131613.00,A,A*68
$GPRMC,131614.00,A,3728.72766,N,12657.10966,E,0.453,,020524,,,A*70
$GPVTG,,T,,M,0.453,N,0.839,K,A*23
$GPGGA,131614.00,3728.72766,N,12657.10966,E,1,05,1.67,85.0,M,18.4,M,,*6A
$GPGSA,A,3,18,15,05,24,23,,,,,,,,3.19,1.67,2.72*01
$GPGSV,3,1,11,05,38,110,26,10,03,303,,13,36,050,06,14,07,053,*73
$GPGSV,3,2,11,15,66,024,31,18,57,269,20,20,10,124,17,22,10,072,25*7D
$GPGSV,3,3,11,23,34,312,22,24,59,182,20,29,01,217,*42
$GPGLL,3728.72766,N,12657.10966,E,131614.00,A,A*6A
$GPRMC,131615.00,A,3728.72765,N,12657.10987,E,0.397,,020524,,,A*72
$GPVTG,,T,,M,0.397,N,0.736,K,A*2C
$GPGGA,131615.00,3728.72765,N,12657.10987,E,1,05,1.67,85.4,M,18.4,M,,*63
$GPGSA,A,3,18,15,05,24,23,,,,,,,,3.19,1.67,2.72*01
$GPGSV,3,1,11,05,38,110,26,10,03,303,,13,36,050,06,14,07,053,*73
$GPGSV,3,2,11,15,66,024,30,18,57,269,18,20,10,124,17,22,10,072,25*77
$GPGSV,3,3,11,23,34,312,21,24,59,182,20,29,01,217,*41
$GPGLL,3728.72765,N,12657.10987,E,131615.00,A,A*67
$GPRMC,131616.00,A,3728.72765,N,12657.10990,E,0.286,,020524,,,A*76
$GPVTG,,T,,M,0.286,N,0.529,K,A*21
$GPGGA,131616.00,3728.72765,N,12657.10990,E,1,05,1.67,85.5,M,18.4,M,,*67
$GPGSA,A,3,18,15,05,24,23,,,,,,,,3.19,1.67,2.72*01
$GPGSV,3,1,11,05,38,110,26,10,03,303,,13,36,050,,14,07,053,*75
$GPGSV,3,2,11,15,66,024,31,18,57,269,18,20,10,124,17,22,10,072,25*76
$GPGSV,3,3,11,23,35,312,20,24,59,182,19,29,01,217,*4B
$GPGLL,3728.72765,N,12657.10990,E,131616.00,A,A*62
$GPRMC,131617.00,A,3728.72802,N,12657.11039,E,0.671,,020524,,,A*7E
$GPVTG,,T,,M,0.671,N,1.242,K,A*26
$GPGGA,131617.00,3728.72802,N,12657.11039,E,1,05,1.67,85.7,M,18.4,M,,*61
$GPGSA,A,3,18,15,05,24,23,,,,,,,,3.19,1.67,2.72*01
$GPGSV,3,1,11,05,38,110,26,10,03,303,,13,36,050,,14,07,053,*75
$GPGSV,3,2,11,15,66,024,31,18,57,269,17,20,10,124,17,22,10,072,25*79
$GPGSV,3,3,11,23,35,312,20,24,60,182,19,29,01,217,*41
$GPGLL,3728.72802,N,12657.11039,E,131617.00,A,A*66
$GPRMC,131618.00,A,3728.72816,N,12657.11048,E,0.598,,020524,,,A*76
$GPVTG,,T,,M,0.598,N,1.108,K,A*2F
$GPGGA,131618.00,3728.72816,N,12657.11048,E,1,05,1.67,85.5,M,18.4,M,,*6F
$GPGSA,A,3,18,15,05,24,23,,,,,,,,3.19,1.67,2.72*01
$GPGSV,3,1,11,05,38,110,26,10,03,303,,13,36,050,,14,07,053,*75
$GPGSV,3,2,11,15,66,024,31,18,57,269,16,20,10,124,17,22,10,072,25*78
$GPGSV,3,3,11,23,35,312,21,24,60,182,18,29,01,217,*41
$GPGLL,3728.72816,N,12657.11048,E,131618.00,A,A*6A
$GPRMC,131619.00,A,3728.72828,N,12657.11057,E,0.519,,020524,,,A*7D
$GPVTG,,T,,M,0.519,N,0.960,K,A*21
$GPGGA,131619.00,3728.72828,N,12657.11057,E,1,05,1.67,85.4,M,18.4,M,,*6C
$GPGSA,A,3,18,15,05,24,23,,,,,,,,3.19,1.67,2.72*01
$GPGSV,3,1,11,05,38,110,26,10,03,303,,13,36,050,,14,07,053,*75
$GPGSV,3,2,11,15,66,024,31,18,57,269,16,20,10,124,17,22,10,072,25*78
$GPGSV,3,3,11,23,35,312,22,24,60,182,18,29,01,217,*42
$GPGLL,3728.72828,N,12657.11057,E,131619.00,A,A*68
$GPRMC,131620.00,A,3728.72797,N,12657.11009,E,0.081,,020524,,,A*73
$GPVTG,,T,,M,0.081,N,0.149,K,A*26
$GPGGA,131620.00,3728.72797,N,12657.11009,E,1,05,1.67,85.4,M,18.4,M,,*66
$GPGSA,A,3,18,15,05,24,23,,,,,,,,3.19,1.67,2.72*01
$GPGSV,3,1,11,05,38,110,26,10,03,303,,13,36,050,,14,07,053,*75
$GPGSV,3,2,11,15,66,024,31,18,57,269,16,20,10,124,18,22,10,072,25*77
$GPGSV,3,3,11,23,35,312,21,24,60,182,17,29,01,217,*4E
$GPGLL,3728.72797,N,12657.11009,E,131620.00,A,A*62
$GPRMC,131621.00,A,3728.72765,N,12657.10965,E,0.294,,020524,,,A*7B
$GPVTG,,T,,M,0.294,N,0.545,K,A*28
$GPGGA,131621.00,3728.72765,N,12657.10965,E,1,05,1.67,85.5,M,18.4,M,,*69
$GPGSA,A,3,18,15,05,24,23,,,,,,,,3.19,1.67,2.72*01
$GPGSV,3,1,11,05,38,110,26,10,03,303,,13,36,050,,14,07,053,*75
$GPGSV,3,2,11,15,66,024,31,18,57,269,15,20,10,124,18,22,10,072,25*74
$GPGSV,3,3,11,23,35,312,21,24,60,182,16,29,01,217,*4F
$GPGLL,3728.72765,N,12657.10965,E,131621.00,A,A*6C
$GPRMC,131622.00,A,3728.72698,N,12657.10868,E,1.066,,020524,,,A*79
$GPVTG,,T,,M,1.066,N,1.975,K,A*28
$GPGGA,131622.00,3728.72698,N,12657.10868,E,1,05,1.67,85.6,M,18.4,M,,*66
$GPGSA,A,3,18,15,05,24,23,,,,,,,,3.19,1.67,2.72*01
$GPGSV,3,1,11,05,38,110,26,10,03,303,,13,36,050,06,14,07,053,*73
$GPGSV,3,2,11,15,66,024,31,18,57,269,16,20,10,124,19,22,10,072,23*70
$GPGSV,3,3,11,23,35,312,20,24,60,182,16,29,01,217,*4E
$GPGLL,3728.72698,N,12657.10868,E,131622.00,A,A*60
$GPRMC,131623.00,A,3728.72663,N,12657.10818,E,1.206,,020524,,,A*7F
$GPVTG,,T,,M,1.206,N,2.233,K,A*26
$GPGGA,131623.00,3728.72663,N,12657.10818,E,1,05,1.67,85.8,M,18.4,M,,*6A
$GPGSA,A,3,18,15,05,24,23,,,,,,,,3.19,1.67,2.72*01
$GPGSV,3,1,11,05,38,110,26,10,03,303,,13,36,050,09,14,07,053,*7C
$GPGSV,3,2,11,15,66,024,31,18,57,269,16,20,10,124,19,22,10,072,24*77
$GPGSV,3,3,11,23,35,312,19,24,60,182,16,29,01,217,*44
$GPGLL,3728.72663,N,12657.10818,E,131623.00,A,A*62
$GPRMC,131624.00,A,3728.72652,N,12657.10789,E,1.095,,020524,,,A*75
$GPVTG,,T,,M,1.095,N,2.028,K,A*26
$GPGGA,131624.00,3728.72652,N,12657.10789,E,1,05,1.67,85.5,M,18.4,M,,*65
$GPGSA,A,3,18,15,05,24,23,,,,,,,,3.19,1.67,2.72*01
$GPGSV,3,1,11,05,38,110,26,10,03,303,,13,36,050,12,14,07,053,*76
$GPGSV,3,2,11,15,66,024,31,18,57,269,15,20,10,124,18,22,10,072,24*75
$GPGSV,3,3,11,23,35,312,19,24,60,182,16,29,01,217,*44
$GPGLL,3728.72652,N,12657.10789,E,131624.00,A,A*60
$GPRMC,131625.00,A,3728.72638,N,12657.10770,E,0.918,,020524,,,A*73
$GPVTG,,T,,M,0.918,N,1.700,K,A*25
$GPGGA,131625.00,3728.72638,N,12657.10770,E,1,05,1.67,85.4,M,18.4,M,,*6F
$GPGSA,A,3,18,15,05,24,23,,,,,,,,3.19,1.67,2.72*01
$GPGSV,3,1,11,05,38,110,26,10,03,303,,13,36,050,09,14,07,053,*7C
$GPGSV,3,2,11,15,66,024,32,18,57,269,15,20,10,124,18,22,10,072,24*76
$GPGSV,3,3,11,23,35,312,19,24,60,182,15,29,01,217,*47
$GPGLL,3728.72638,N,12657.10770,E,131625.00,A,A*6B
$GPRMC,131626.00,A,3728.72649,N,12657.10783,E,0.474,,020524,,,A*7D
$GPVTG,,T,,M,0.474,N,0.878,K,A*23
$GPGGA,131626.00,3728.72649,N,12657.10783,E,1,04,2.21,85.5,M,18.4,M,,*67
$GPGSA,A,3,18,15,05,23,,,,,,,,,3.51,2.21,2.73*0B
$GPGSV,3,1,11,05,38,110,26,10,03,303,,13,36,050,08,14,07,053,*7D
$GPGSV,3,2,11,15,66,024,31,18,57,269,16,20,10,124,17,22,10,072,24*79
$GPGSV,3,3,11,23,35,312,20,24,60,182,,29,01,217,*49
$GPGLL,3728.72649,N,12657.10783,E,131626.00,A,A*62
$GPRMC,131627.00,A,3728.72601,N,12657.10722,E,0.799,,020524,,,A*7B
$GPVTG,,T,,M,0.799,N,1.480,K,A*29
$GPGGA,131627.00,3728.72601,N,12657.10722,E,1,04,2.21,85.4,M,18.4,M,,*60
$GPGSA,A,3,18,15,05,23,,,,,,,,,3.51,2.21,2.73*0B
$GPGSV,3,1,11,05,38,110,26,10,03,303,,13,36,050,08,14,07,053,*7D
$GPGSV,3,2,11,15,66,024,31,18,57,269,16,20,10,124,14,22,10,072,24*7A
$GPGSV,3,3,11,23,35,312,21,24,60,182,,29,01,217,*48
$GPGLL,3728.72601,N,12657.10722,E,131627.00,A,A*64
$GPRMC,131628.00,A,3728.72564,N,12657.10669,E,0.932,,020524,,,A*75
$GPVTG,,T,,M,0.932,N,1.725,K,A*2A
$GPGGA,131628.00,3728.72564,N,12657.10669,E,1,04,2.21,85.4,M,18.4,M,,*61
$GPGSA,A,3,18,15,05,23,,,,,,,,,3.51,2.21,2.73*0B
$GPGSV,3,1,11,05,38,110,26,10,03,303,,13,36,050,08,14,07,053,*7D
$GPGSV,3,2,11,15,66,024,31,18,57,269,17,20,10,124,13,22,10,072,24*7C
$GPGSV,3,3,11,23,35,312,22,24,60,182,04,29,01,217,*4F
$GPGLL,3728.72564,N,12657.10669,E,131628.00,A,A*65
$GPRMC,131629.00,A,3728.72539,N,12657.10644,E,0.781,,020524,,,A*75
$GPVTG,,T,,M,0.781,N,1.447,K,A*2B
$GPGGA,131629.00,3728.72539,N,12657.10644,E,1,04,2.21,85.4,M,18.4,M,,*67
$GPGSA,A,3,18,15,05,23,,,,,,,,,3.51,2.21,2.73*0B
$GPGSV,3,1,11,05,38,110,25,10,03,303,,13,36,050,08,14,07,053,*7E
$GPGSV,3,2,11,15,66,024,31,18,57,269,18,20,10,124,13,22,10,072,24*73
$GPGSV,3,3,11,23,35,312,22,24,60,182,07,29,01,217,*4C
$GPGLL,3728.72539,N,12657.10644,E,131629.00,A,A*63
$GPRMC,131630.00,A,3728.72531,N,12657.10641,E,0.513,,020524,,,A*79
$GPVTG,,T,,M,0.513,N,0.951,K,A*29
$GPGGA,131630.00,3728.72531,N,12657.10641,E,1,04,2.21,85.5,M,18.4,M,,*63
$GPGSA,A,3,18,15,05,23,,,,,,,,,3.51,2.21,2.73*0B
$GPGSV,3,1,11,05,38,110,25,10,03,303,,13,36,050,08,14,07,053,*7E
$GPGSV,3,2,11,15,66,024,31,18,57,269,19,20,10,124,12,22,10,072,24*73
$GPGSV,3,3,11,23,35,312,22,24,60,182,11,29,01,217,*4B
$GPGLL,3728.72531,N,12657.10641,E,131630.00,A,A*66
$GPRMC,131631.00,A,3728.72496,N,12657.10598,E,0.671,,020524,,,A*74
$GPVTG,,T,,M,0.671,N,1.242,K,A*26
$GPGGA,131631.00,3728.72496,N,12657.10598,E,1,04,2.21,85.7,M,18.4,M,,*6B
$GPGSA,A,3,18,15,05,23,,,,,,,,,3.51,2.21,2.73*0B
$GPGSV,3,1,11,05,38,110,25,10,03,303,,13,36,050,08,14,07,053,*7E
$GPGSV,3,2,11,15,66,024,32,18,57,269,21,20,10,124,12,22,10,072,24*7B
$GPGSV,3,3,11,23,35,312,23,24,60,182,12,29,01,217,*49
$GPGLL,3728.72496,N,12657.10598,E,131631.00,A,A*6C
$GPRMC,131632.00,A,3728.72502,N,12657.10599,E,0.316,,020524,,,A*7E
$GPVTG,,T,,M,0.316,N,0.585,K,A*2F
$GPGGA,131632.00,3728.72502,N,12657.10599,E,1,04,2.21,85.6,M,18.4,M,,*64
$GPGSA,A,3,18,15,05,23,,,,,,,,,3.51,2.21,2.73*0B
$GPGSV,3,1,11,05,38,110,25,10,03,303,,13,36,050,09,14,07,053,*7F
$GPGSV,3,2,11,15,66,024,32,18,57,269,22,20,10,124,11,22,10,072,25*7A
$GPGSV,3,3,11,23,35,312,23,24,60,182,12,29,01,217,*49
$GPGLL,3728.72502,N,12657.10599,E,131632.00,A,A*62
$GPRMC,131633.00,A,3728.72488,N,12657.10600,E,0.254,,020524,,,A*78
$GPVTG,,T,,M,0.254,N,0.471,K,A*22
$GPGGA,131633.00,3728.72488,N,12657.10600,E,1,05,1.67,85.8,M,18.4,M,,*6B
$GPGSA,A,3,18,15,05,24,23,,,,,,,,3.19,1.67,2.72*01
$GPGSV,3,1,11,05,38,110,25,10,03,303,,13,36,050,09,14,07,053,*7F
$GPGSV,3,2,11,15,66,024,31,18,57,269,22,20,10,124,09,22,10,072,24*71
$GPGSV,3,3,11,23,35,312,24,24,60,182,14,29,01,217,*48
$GPGLL,3728.72488,N,12657.10600,E,131633.00,A,A*63
$GPRMC,131634.00,A,3728.72496,N,12657.10581,E,0.349,,020524,,,A*77
$GPVTG,,T,,M,0.349,N,0.646,K,A*29
$GPGGA,131634.00,3728.72496,N,12657.10581,E,1,05,1.67,85.7,M,18.4,M,,*66
$GPGSA,A,3,18,15,05,24,23,,,,,,,,3.19,1.67,2.72*01
$GPGSV,3,1,11,05,38,110,25,10,03,303,,13,36,050,21,14,07,053,*75
$GPGSV,3,2,11,15,66,024,30,18,57,269,21,20,10,124,08,22,10,072,25*73
$GPGSV,3,3,11,23,35,312,23,24,60,182,16,29,01,217,*4D
$GPGLL,3728.72496,N,12657.10581,E,131634.00,A,A*61
$GPRMC,131635.00,A,3728.72499,N,12657.10592,E,0.202,,020524,,,A*75
$GPVTG,,T,,M,0.202,N,0.374,K,A*23
$GPGGA,131635.00,3728.72499,N,12657.10592,E,1,05,1.67,85.7,M,18.4,M,,*6A
$GPGSA,A,3,18,15,05,24,23,,,,,,,,3.19,1.67,2.72*01
$GPGSV,3,1,11,05,38,110,24,10,03,303,,13,36,050,22,14,07,053,*77
$GPGSV,3,2,11,15,66,024,30,18,57,269,21,20,10,124,08,22,10,072,24*72
$GPGSV,3,3,11,23,35,312,23,24,60,182,16,29,01,217,*4D
$GPGLL,3728.72499,N,12657.10592,E,131635.00,A,A*6D
$GPRMC,131636.00,A,3728.72484,N,12657.10595,E,0.247,,020524,,,A*7C
$GPVTG,,T,,M,0.247,N,0.457,K,A*24
$GPGGA,131636.00,3728.72484,N,12657.10595,E,1,06,1.39,85.7,M,18.4,M,,*6A
$GPGSA,A,3,18,15,05,13,24,23,,,,,,,2.99,1.39,2.65*07
$GPGSV,3,1,11,05,38,110,23,10,03,303,,13,36,050,22,14,07,053,*70
$GPGSV,3,2,11,15,66,024,29,18,57,269,21,20,10,124,08,22,10,072,24*7A
$GPGSV,3,3,11,23,35,312,23,24,60,182,16,29,01,217,*4D
$GPGLL,3728.72484,N,12657.10595,E,131636.00,A,A*65
$GPRMC,131637.00,A,3728.72455,N,12657.10611,E,0.409,,020524,,,A*72
$GPVTG,,T,,M,0.409,N,0.758,K,A*24
$GPGGA,131637.00,3728.72455,N,12657.10611,E,1,06,1.39,85.9,M,18.4,M,,*66
$GPGSA,A,3,18,15,05,13,24,23,,,,,,,2.99,1.39,2.65*07
$GPGSV,3,1,11,05,38,110,23,10,03,303,,13,36,050,22,14,07,053,*70
$GPGSV,3,2,11,15,66,024,29,18,57,269,21,20,10,124,08,22,10,072,23*7D
$GPGSV,3,3,11,23,35,312,24,24,60,182,14,29,01,217,*48
$GPGLL,3728.72455,N,12657.10611,E,131637.00,A,A*67
$GPRMC,131638.00,A,3728.72466,N,12657.10671,E,0.517,,020524,,,A*75
$GPVTG,,T,,M,0.517,N,0.957,K,A*2B
$GPGGA,131638.00,3728.72466,N,12657.10671,E,1,06,1.39,86.4,M,18.4,M,,*61
$GPGSA,A,3,18,15,05,13,24,23,,,,,,,2.99,1.39,2.65*07
$GPGSV,3,1,11,05,38,110,22,10,03,303,,13,36,050,22,14,07,053,*71
$GPGSV,3,2,11,15,66,024,30,18,57,269,21,20,10,124,09,22,10,072,23*74
$GPGSV,3,3,11,23,35,312,25,24,60,182,13,29,01,217,*4E
$GPGLL,3728.72466,N,12657.10671,E,131638.00,A,A*6E
$GPRMC,131639.00,A,3728.72462,N,12657.10682,E,0.264,,020524,,,A*7F
$GPVTG,,T,,M,0.264,N,0.490,K,A*2E
$GPGGA,131639.00,3728.72462,N,12657.10682,E,1,06,1.39,86.7,M,18.4,M,,*6B
$GPGSA,A,3,18,15,05,13,24,23,,,,,,,2.99,1.39,2.65*07
$GPGSV,3,1,11,05,38,110,23,10,03,303,,13,36,050,21,14,07,053,*73
$GPGSV,3,2,11,15,66,024,30,18,57,269,21,20,10,124,09,22,10,072,23*74
$GPGSV,3,3,11,23,35,312,25,24,60,182,12,29,01,217,*4F
$GPGLL,3728.72462,N,12657.10682,E,131639.00,A,A*67
$GPRMC,131640.00,A,3728.72453,N,12657.10683,E,0.075,,020524,,,A*70
$GPVTG,,T,,M,0.075,N,0.140,K,A*24
$GPGGA,131640.00,3728.72453,N,12657.10683,E,1,06,1.39,87.1,M,18.4,M,,*61
$GPGSA,A,3,18,15,05,13,24,23,,,,,,,2.99,1.39,2.65*07
$GPGSV,3,1,11,05,38,111,24,10,03,303,,13,36,050,21,14,07,053,*75
$GPGSV,3,2,11,15,66,024,30,18,57,269,22,20,10,124,09,22,10,072,24*70
$GPGSV,3,3,11,23,35,312,26,24,60,182,14,29,01,217,*4A
$GPGLL,3728.72453,N,12657.10683,E,131640.00,A,A*6A
$GPRMC,131641.00,A,3728.72434,N,12657.10706,E,0.295,,020524,,,A*70
$GPVTG,,T,,M,0.295,N,0.546,K,A*2A
$GPGGA,131641.00,3728.72434,N,12657.10706,E,1,06,1.39,86.9,M,18.4,M,,*64
$GPGSA,A,3,18,15,05,13,24,23,,,,,,,2.99,1.39,2.65*07
$GPGSV,3,1,11,05,38,111,27,10,03,303,,13,36,050,19,14,07,053,*7D
$GPGSV,3,2,11,15,66,024,31,18,57,269,22,20,10,124,09,22,10,072,26*73
$GPGSV,3,3,11,23,35,312,27,24,60,182,16,29,01,217,*49
$GPGLL,3728.72434,N,12657.10706,E,131641.00,A,A*66
$GPRMC,131642.00,A,3728.72397,N,12657.10768,E,0.998,,020524,,,A*73
$GPVTG,,T,,M,0.998,N,1.848,K,A*2E
$GPGGA,131642.00,3728.72397,N,12657.10768,E,1,06,1.39,86.5,M,18.4,M,,*6D
$GPGSA,A,3,18,15,05,13,24,23,,,,,,,2.99,1.39,2.65*07
$GPGSV,3,1,11,05,38,111,26,10,03,303,,13,36,050,21,14,07,053,*77
$GPGSV,3,2,11,15,66,024,30,18,57,269,20,20,10,124,09,22,10,072,24*72
$GPGSV,3,3,11,23,35,312,27,24,60,182,17,29,01,217,*48
$GPGLL,3728.72397,N,12657.10768,E,131642.00,A,A*63
$GPRMC,131643.00,A,3728.72412,N,12657.10858,E,1.466,,020524,,,A*79
$GPVTG,,T,,M,1.466,N,2.715,K,A*27
$GPGGA,131643.00,3728.72412,N,12657.10858,E,1,06,1.39,86.4,M,18.4,M,,*6B
$GPGSA,A,3,18,15,05,13,24,23,,,,,,,2.99,1.39,2.65*07
$GPGSV,3,1,11,05,38,111,26,10,03,303,,13,36,050,21,14,07,053,*77
$GPGSV,3,2,11,15,66,024,29,18,57,269,19,20,10,124,09,22,10,072,25*71
$GPGSV,3,3,11,23,35,312,27,24,60,182,17,29,01,217,*48
$GPGLL,3728.72412,N,12657.10858,E,131643.00,A,A*64
$GPRMC,131644.00,A,3728.72457,N,12657.10987,E,2.092,,020524,,,A*70
$GPVTG,,T,,M,2.092,N,3.875,K,A*23
$GPGGA,131644.00,3728.72457,N,12657.10987,E,1,06,1.39,86.1,M,18.4,M,,*6B
$GPGSA,A,3,18,15,05,13,24,23,,,,,,,2.99,1.39,2.65*07
$GPGSV,3,1,11,05,38,111,26,10,03,304,,13,36,050,22,14,07,053,*73
$GPGSV,3,2,11,15,66,024,30,18,57,269,18,20,10,124,12,22,10,072,25*72
$GPGSV,3,3,11,23,35,312,26,24,60,182,19,29,01,217,*47
$GPGLL,3728.72457,N,12657.10987,E,131644.00,A,A*61
$GPRMC,131645.00,A,3728.72444,N,12657.11139,E,3.476,95.89,020524,,,A*53
$GPVTG,95.89,T,,M,3.476,N,6.438,K,A*0F
$GPGGA,131645.00,3728.72444,N,12657.11139,E,1,06,1.39,86.7,M,18.4,M,,*62
$GPGSA,A,3,18,15,05,13,24,23,,,,,,,2.99,1.39,2.65*07
$GPGSV,3,1,11,05,38,111,26,10,03,304,,13,36,050,21,14,07,053,*70
$GPGSV,3,2,11,15,66,024,30,18,57,269,18,20,10,124,12,22,10,072,26*71
$GPGSV,3,3,11,23,35,312,26,24,60,182,18,29,01,217,*46
$GPGLL,3728.72444,N,12657.11139,E,131645.00,A,A*6E
$GPRMC,131646.00,A,3728.72456,N,12657.11349,E,4.840,100.54,020524,,,A*65
$GPVTG,100.54,T,,M,4.840,N,8.965,K,A*37
$GPGGA,131646.00,3728.72456,N,12657.11349,E,1,06,1.39,86.7,M,18.4,M,,*67
$GPGSA,A,3,18,15,05,13,24,23,,,,,,,2.99,1.39,2.65*07
$GPGSV,3,1,11,05,38,111,27,10,03,304,,13,36,050,22,14,07,053,*72
$GPGSV,3,2,11,15,66,024,30,18,57,269,20,20,10,124,,22,10,072,26*79
$GPGSV,3,3,11,23,35,312,27,24,60,182,18,29,01,217,*47
$GPGLL,3728.72456,N,12657.11349,E,131646.00,A,A*6B
$GPRMC,131647.00,A,3728.72449,N,12657.11611,E,6.558,101.38,020524,,,A*6F
$GPVTG,101.38,T,,M,6.558,N,12.145,K,A*0B
$GPGGA,131647.00,3728.72449,N,12657.11611,E,1,06,1.39,86.7,M,18.4,M,,*60
$GPGSA,A,3,18,15,05,13,24,23,,,,,,,2.99,1.39,2.65*07
$GPGSV,3,1,11,05,38,111,26,10,03,304,,13,36,050,21,14,07,053,*70
$GPGSV,3,2,11,15,66,024,29,18,57,269,20,20,10,124,,22,10,072,25*72
$GPGSV,3,3,11,23,35,312,26,24,60,182,18,29,01,217,*46
$GPGLL,3728.72449,N,12657.11611,E,131647.00,A,A*6C
$GPRMC,131648.00,A,3728.72447,N,12657.11896,E,7.327,99.73,020524,,,A*5F
$GPVTG,99.73,T,,M,7.327,N,13.569,K,A*30
$GPGGA,131648.00,3728.72447,N,12657.11896,E,1,06,1.39,85.9,M,18.4,M,,*6D
$GPGSA,A,3,18,15,05,13,24,23,,,,,,,2.99,1.39,2.65*07
$GPGSV,3,1,11,05,38,111,26,10,03,304,,13,36,050,21,14,07,053,*70
$GPGSV,3,2,11,15,66,024,29,18,57,269,20,20,10,124,,22,10,072,24*73
$GPGSV,3,3,11,23,35,312,24,24,60,182,19,29,01,217,*45
$GPGLL,3728.72447,N,12657.11896,E,131648.00,A,A*6C
$GPRMC,131649.00,A,3728.72405,N,12657.12187,E,8.042,100.44,020524,,,A*68
$GPVTG,100.44,T,,M,8.042,N,14.894,K,A*02
$GPGGA,131649.00,3728.72405,N,12657.12187,E,1,06,1.39,85.5,M,18.4,M,,*6C
$GPGSA,A,3,18,15,05,13,24,23,,,,,,,2.99,1.39,2.65*07
$GPGSV,3,1,11,05,38,111,25,10,03,304,,13,36,050,20,14,07,053,*72
$GPGSV,3,2,11,15,66,025,28,18,57,269,19,20,10,124,,22,10,072,23*7E
$GPGSV,3,3,11,23,35,312,21,24,60,182,18,29,01,217,*41
$GPGLL,3728.72405,N,12657.12187,E,131649.00,A,A*61
$GPRMC,131650.00,A,3728.72324,N,12657.12578,E,9.954,103.02,020524,,,A*6E
$GPVTG,103.02,T,,M,9.954,N,18.434,K,A*06
$GPGGA,131650.00,3728.72324,N,12657.12578,E,1,06,1.39,84.8,M,18.4,M,,*68
$GPGSA,A,3,18,15,05,13,24,23,,,,,,,2.99,1.39,2.65*07
$GPGSV,3,1,11,05,38,111,26,10,03,304,,13,36,050,21,14,07,053,*70
$GPGSV,3,2,11,15,66,025,29,18,57,269,18,20,10,124,,22,10,072,21*7C
$GPGSV,3,3,11,23,35,312,19,24,60,182,17,29,01,217,*45
$GPGLL,3728.72324,N,12657.12578,E,131650.00,A,A*69
$GPRMC,131651.00,A,3728.72318,N,12657.12969,E,10.349,101.29,020524,,,A*59
$GPVTG,101.29,T,,M,10.349,N,19.167,K,A*31
$GPGGA,131651.00,3728.72318,N,12657.12969,E,1,06,1.39,84.5,M,18.4,M,,*67
$GPGSA,A,3,18,15,05,13,24,23,,,,,,,2.99,1.39,2.65*07
$GPGSV,3,1,11,05,38,111,26,10,03,304,,13,36,050,23,14,07,053,*72
$GPGSV,3,2,11,15,66,025,28,18,57,269,17,20,10,124,,22,10,072,18*78
$GPGSV,3,3,11,23,35,312,21,24,60,182,18,29,01,217,*41
$GPGLL,3728.72318,N,12657.12969,E,131651.00,A,A*6B
$GPRMC,131652.00,A,3728.72292,N,12657.13329,E,10.289,100.72,020524,,,A*54
$GPVTG,100.72,T,,M,10.289,N,19.055,K,A*33
$GPGGA,131652.00,3728.72292,N,12657.13329,E,1,06,1.39,83.6,M,18.4,M,,*6C
$GPGSA,A,3,18,15,05,13,24,23,,,,,,,2.99,1.39,2.65*07
$GPGSV,3,1,11,05,38,111,25,10,03,304,,13,36,050,24,14,07,053,*76
$GPGSV,3,2,11,15,66,025,25,18,57,268,17,20,10,124,,22,10,072,14*78
$GPGSV,3,3,11,23,35,312,30,24,60,182,16,29,01,217,*4F
$GPGLL,3728.72292,N,12657.13329,E,131652.00,A,A*64
$GPRMC,131653.00,A,3728.72331,N,12657.13673,E,9.891,97.39,020524,,,A*5C
$GPVTG,97.39,T,,M,9.891,N,18.319,K,A*32
$GPGGA,131653.00,3728.72331,N,12657.13673,E,1,06,1.39,82.4,M,18.4,M,,*6C
$GPGSA,A,3,18,15,05,13,24,23,,,,,,,2.99,1.39,2.65*07
$GPGSV,3,1,11,05,38,111,25,10,03,304,,13,36,050,26,14,07,053,*74
$GPGSV,3,2,11,15,66,025,22,18,57,268,19,20,10,124,,22,10,072,09*7D
$GPGSV,3,3,11,23,35,312,29,24,60,182,17,29,01,217,*46
$GPGLL,3728.72331,N,12657.13673,E,131653.00,A,A*67
$GPRMC,131654.00,A,3728.72422,N,12657.14050,E,9.847,92.01,020524,,,A*5B
$GPVTG,92.01,T,,M,9.847,N,18.237,K,A*3A
$GPGGA,131654.00,3728.72422,N,12657.14050,E,1,06,1.39,81.7,M,18.4,M,,*6E
$GPGSA,A,3,18,15,05,13,24,23,,,,,,,2.99,1.39,2.65*07
$GPGSV,3,1,11,05,38,111,23,10,03,304,,13,36,050,24,14,07,053,*70
$GPGSV,3,2,11,15,66,025,17,18,57,268,21,20,10,124,,22,10,072,08*71
$GPGSV,3,3,11,23,35,312,19,24,60,182,16,29,01,217,*44
$GPGLL,3728.72422,N,12657.14050,E,131654.00,A,A*65
$GPRMC,131655.00,A,3728.72552,N,12657.14396,E,9.543,85.72,020524,,,A*5E
$GPVTG,85.72,T,,M,9.543,N,17.673,K,A*3A
$GPGGA,131655.00,3728.72552,N,12657.14396,E,1,06,1.39,81.0,M,18.4,M,,*67
$GPGSA,A,3,18,15,05,13,24,23,,,,,,,2.99,1.39,2.65*07
$GPGSV,3,1,11,05,38,111,21,10,03,304,,13,36,050,22,14,07,053,*74
$GPGSV,3,2,11,15,66,025,14,18,57,268,22,20,10,124,,22,10,072,08*71
$GPGSV,3,3,11,23,35,312,17,24,60,182,15,29,01,217,*49
$GPGLL,3728.72552,N,12657.14396,E,131655.00,A,A*6B
$GPRMC,131656.00,A,3728.72851,N,12657.14599,E,8.871,69.20,020524,,,A*52
$GPVTG,69.20,T,,M,8.871,N,16.429,K,A*3E
$GPGGA,131656.00,3728.72851,N,12657.14599,E,1,06,1.39,79.7,M,18.4,M,,*63
$GPGSA,A,3,18,15,05,13,24,23,,,,,,,2.99,1.39,2.65*07
$GPGSV,3,1,11,05,38,111,19,10,03,304,,13,36,050,19,14,07,053,*77
$GPGSV,3,2,11,15,66,025,11,18,57,268,30,20,10,124,,22,10,072,*7F
$GPGSV,3,3,11,23,35,312,28,24,60,182,19,29,01,217,*49
$GPGLL,3728.72851,N,12657.14599,E,131656.00,A,A*6F
$GPRMC,131657.00,A,3728.73423,N,12657.14900,E,11.504,45.55,020524,,,A*6C
$GPVTG,45.55,T,,M,11.504,N,21.306,K,A*0B
$GPGGA,131657.00,3728.73423,N,12657.14900,E,1,06,1.39,79.1,M,18.4,M,,*60
$GPGSA,A,3,18,15,05,13,24,23,,,,,,,2.99,1.39,2.65*07
$GPGSV,3,1,11,05,38,111,17,10,03,304,,13,36,050,20,14,07,053,*73
$GPGSV,3,2,11,15,66,025,18,18,57,268,22,20,10,124,,22,10,072,*75
$GPGSV,3,3,11,23,35,312,22,24,60,182,25,29,01,217,*4C
$GPGLL,3728.73423,N,12657.14900,E,131657.00,A,A*6A
$GPRMC,131658.00,A,3728.73872,N,12657.14852,E,12.695,23.20,020524,,,A*67
$GPVTG,23.20,T,,M,12.695,N,23.512,K,A*00
$GPGGA,131658.00,3728.73872,N,12657.14852,E,1,06,1.39,77.9,M,18.4,M,,*67
$GPGSA,A,3,18,15,05,13,24,23,,,,,,,2.99,1.39,2.65*07
$GPGSV,3,1,11,05,38,111,19,10,03,304,,13,36,050,17,14,07,053,*79
$GPGSV,3,2,11,15,66,025,20,18,57,268,30,20,10,124,,22,10,072,*7D
$GPGSV,3,3,11,23,35,312,33,24,60,182,22,29,01,217,*4B
$GPGLL,3728.73872,N,12657.14852,E,131658.00,A,A*6B
$GPRMC,131659.00,A,3728.74298,N,12657.14968,E,14.299,15.72,020524,,,A*6B
$GPVTG,15.72,T,,M,14.299,N,26.482,K,A*01
$GPGGA,131659.00,3728.74298,N,12657.14968,E,1,06,1.39,77.2,M,18.4,M,,*6C
$GPGSA,A,3,18,15,05,13,24,23,,,,,,,2.99,1.39,2.65*07
$GPGSV,3,1,11,05,38,111,17,10,03,304,,13,36,050,14,14,07,053,*74
$GPGSV,3,2,11,15,66,025,20,18,57,268,34,20,10,124,,22,10,072,*79
$GPGSV,3,3,11,23,35,312,32,24,60,182,20,29,01,217,*48
$GPGLL,3728.74298,N,12657.14968,E,131659.00,A,A*6B
$GPRMC,131700.00,A,3728.74730,N,12657.15085,E,15.453,13.86,020524,,,A*66
$GPVTG,13.86,T,,M,15.453,N,28.620,K,A*09
$GPGGA,131700.00,3728.74730,N,12657.15085,E,1,05,1.67,76.6,M,18.4,M,,*60
$GPGSA,A,3,18,15,05,24,23,,,,,,,,3.19,1.67,2.73*00
$GPGSV,3,1,11,05,38,111,17,10,03,304,,13,36,050,09,14,07,053,*78
$GPGSV,3,2,11,15,66,025,21,18,57,268,33,20,10,124,,22,10,072,*7F
$GPGSV,3,3,11,23,35,312,29,24,60,182,17,29,01,217,*46
$GPGLL,3728.74730,N,12657.15085,E,131700.00,A,A*6A
$GPRMC,131701.00,A,3728.75177,N,12657.15184,E,16.234,12.42,020524,,,A*6E
$GPVTG,12.42,T,,M,16.234,N,30.065,K,A*0A
$GPGGA,131701.00,3728.75177,N,12657.15184,E,1,05,1.67,75.8,M,18.4,M,,*68
$GPGSA,A,3,18,15,05,24,23,,,,,,,,3.19,1.67,2.73*00
$GPGSV,3,1,11,05,38,111,18,10,03,304,,13,36,050,08,14,07,053,*76
$GPGSV,3,2,11,15,66,025,23,18,57,268,33,20,10,124,,22,10,072,*7D
$GPGSV,3,3,11,23,35,312,30,24,60,182,16,29,01,217,*4F
$GPGLL,3728.75177,N,12657.15184,E,131701.00,A,A*6F
$GPRMC,131702.00,A,3728.75584,N,12657.15227,E,15.781,9.98,020524,,,A*5A
$GPVTG,9.98,T,,M,15.781,N,29.227,K,A*33
$GPGGA,131702.00,3728.75584,N,12657.15227,E,1,05,1.67,75.2,M,18.4,M,,*63
$GPGSA,A,3,18,15,05,24,23,,,,,,,,3.19,1.67,2.73*00
$GPGSV,3,1,11,05,38,111,14,10,03,304,,13,36,050,08,14,07,053,*7A
$GPGSV,3,2,11,15,66,025,23,18,57,268,28,20,10,124,,22,10,072,*77
$GPGSV,3,3,11,23,35,312,22,24,60,182,15,29,00,217,*4E
$GPGLL,3728.75584,N,12657.15227,E,131702.00,A,A*6E
$GPRMC,131703.00,A,3728.75989,N,12657.15221,E,15.449,8.36,020524,,,A*5E
$GPVTG,8.36,T,,M,15.449,N,28.612,K,A*32
$GPGGA,131703.00,3728.75989,N,12657.15221,E,1,05,1.67,74.9,M,18.4,M,,*6F
$GPGSA,A,3,18,15,05,24,23,,,,,,,,3.19,1.67,2.73*00
$GPGSV,3,1,11,05,38,111,25,10,03,304,,13,36,050,08,14,07,053,*78
$GPGSV,3,2,11,15,66,025,22,18,57,268,29,20,10,124,,22,10,072,*77
$GPGSV,3,3,11,23,35,312,23,24,60,182,13,29,00,217,*49
$GPGLL,3728.75989,N,12657.15221,E,131703.00,A,A*68
$GPRMC,131704.00,A,3728.76407,N,12657.15271,E,15.556,7.99,020524,,,A*51
$GPVTG,7.99,T,,M,15.556,N,28.809,K,A*33
$GPGGA,131704.00,3728.76407,N,12657.15271,E,1,05,1.67,74.6,M,18.4,M,,*6A
$GPGSA,A,3,18,15,05,24,23,,,,,,,,3.19,1.67,2.73*00
$GPGSV,3,1,11,05,38,111,18,10,03,304,,13,36,050,08,14,07,053,*76
$GPGSV,3,2,11,15,66,025,21,18,57,268,30,20,10,124,,22,10,072,*7C
$GPGSV,3,3,11,23,35,312,22,24,60,182,15,29,00,217,*4E
$GPGLL,3728.76407,N,12657.15271,E,131704.00,A,A*62
$GPRMC,131705.00,A,3728.76829,N,12657.15367,E,15.627,8.51,020524,,,A*58
$GPVTG,8.51,T,,M,15.627,N,28.940,K,A*31
$GPGGA,131705.00,3728.76829,N,12657.15367,E,1,05,1.67,74.0,M,18.4,M,,*6B
$GPGSA,A,3,18,15,05,24,23,,,,,,,,3.19,1.67,2.73*00
$GPGSV,3,1,11,05,38,111,16,10,03,304,,13,36,050,08,14,07,053,*78
$GPGSV,3,2,11,15,66,025,20,18,57,268,30,20,10,124,,22,10,072,*7D
$GPGSV,3,3,11,23,35,312,22,24,60,182,17,29,00,217,*4C
$GPGLL,3728.76829,N,12657.15367,E,131705.00,A,A*65
$GPRMC,131706.00,A,3728.77270,N,12657.15409,E,15.951,7.84,020524,,,A*5A
$GPVTG,7.84,T,,M,15.951,N,29.541,K,A*34
$GPGGA,131706.00,3728.77270,N,12657.15409,E,1,05,1.67,73.6,M,18.4,M,,*61
$GPGSA,A,3,18,15,05,24,23,,,,,,,,3.19,1.67,2.73*00
$GPGSV,3,1,11,05,38,111,13,10,03,304,,13,36,050,08,14,07,053,*7D
$GPGSV,3,2,11,15,66,025,22,18,57,268,30,20,10,124,,22,10,072,*7F
$GPGSV,3,3,11,23,35,312,22,24,60,182,17,29,00,217,*4C
$GPGLL,3728.77270,N,12657.15409,E,131706.00,A,A*6E
$GPRMC,131707.00,A,3728.77716,N,12657.15447,E,16.156,6.94,020524,,,A*58
$GPVTG,6.94,T,,M,16.156,N,29.922,K,A*31
$GPGGA,131707.00,3728.77716,N,12657.15447,E,1,05,1.66,73.2,M,18.4,M,,*6A
$GPGSA,A,3,18,15,05,24,23,,,,,,,,3.19,1.66,2.73*01
$GPGSV,3,1,11,05,38,111,11,10,03,304,,13,36,050,08,14,07,053,*7F
$GPGSV,3,2,11,15,66,025,22,18,57,268,31,20,10,124,,22,10,072,*7E
$GPGSV,3,3,11,23,35,312,23,24,60,182,16,29,00,217,*4C
$GPGLL,3728.77716,N,12657.15447,E,131707.00,A,A*60
$GPRMC,131708.00,A,3728.78067,N,12657.15594,E,15.213,9.00,020524,,,A*55
$GPVTG,9.00,T,,M,15.213,N,28.174,K,A*38
$GPGGA,131708.00,3728.78067,N,12657.15594,E,1,05,1.66,72.4,M,18.4,M,,*63
$GPGSA,A,3,18,15,05,24,23,,,,,,,,3.19,1.66,2.73*01
$GPGSV,3,1,11,05,38,111,10,10,03,304,,13,36,050,06,14,07,053,*70
$GPGSV,3,2,11,15,66,025,23,18,57,268,32,20,10,124,,22,10,072,*7C
$GPGSV,3,3,11,23,35,312,24,24,60,182,16,29,00,217,*4B
$GPGLL,3728.78067,N,12657.15594,E,131708.00,A,A*6E
$GPRMC,131709.00,A,3728.78325,N,12657.15533,E,14.262,9.08,020524,,,A*53
$GPVTG,9.08,T,,M,14.262,N,26.413,K,A*3D
$GPGGA,131709.00,3728.78325,N,12657.15533,E,1,06,1.39,72.6,M,18.4,M,,*61
$GPGSA,A,3,18,15,05,13,24,23,,,,,,,2.99,1.39,2.65*07
$GPGSV,3,1,11,05,38,111,10,10,03,304,,13,36,050,21,14,07,053,*75
$GPGSV,3,2,11,15,66,025,25,18,57,268,34,20,10,124,,22,10,072,*7C
$GPGSV,3,3,11,23,35,312,22,24,60,182,15,29,00,217,*4E
$GPGLL,3728.78325,N,12657.15533,E,131709.00,A,A*67
$GPRMC,131710.00,A,3728.78578,N,12657.15467,E,13.056,7.39,020524,,,A*5B
$GPVTG,7.39,T,,M,13.056,N,24.179,K,A*38
$GPGGA,131710.00,3728.78578,N,12657.15467,E,1,05,1.78,72.8,M,18.4,M,,*6F
$GPGSA,A,3,18,15,13,24,23,,,,,,,,3.91,1.78,3.49*01
$GPGSV,3,1,11,05,38,111,10,10,03,304,,13,36,050,24,14,07,053,*70
$GPGSV,3,2,11,15,66,025,26,18,57,268,32,20,10,124,,22,10,072,*79
$GPGSV,3,3,11,23,35,312,21,24,60,182,15,29,00,217,*4D
$GPGLL,3728.78578,N,12657.15467,E,131710.00,A,A*61
$GPRMC,131711.00,A,3728.78883,N,12657.15444,E,12.796,6.53,020524,,,A*55
$GPVTG,6.53,T,,M,12.796,N,23.699,K,A*31
$GPGGA,131711.00,3728.78883,N,12657.15444,E,1,05,1.78,73.0,M,18.4,M,,*6F
$GPGSA,A,3,18,15,13,24,23,,,,,,,,3.91,1.78,3.49*01
$GPGSV,3,1,11,05,38,111,10,10,03,304,,13,36,050,21,14,07,053,*75
$GPGSV,3,2,11,15,66,025,26,18,57,268,32,20,10,124,,22,10,072,*79
$GPGSV,3,3,11,23,35,312,18,24,60,182,14,29,00,217,*46
$GPGLL,3728.78883,N,12657.15444,E,131711.00,A,A*68
$GPRMC,131712.00,A,3728.79100,N,12657.15425,E,11.297,4.57,020524,,,A*53
$GPVTG,4.57,T,,M,11.297,N,20.923,K,A*3D
$GPGGA,131712.00,3728.79100,N,12657.15425,E,1,05,1.78,73.0,M,18.4,M,,*68
$GPGSA,A,3,18,15,13,24,23,,,,,,,,3.91,1.78,3.49*01
$GPGSV,3,1,11,05,38,111,10,10,03,304,,13,36,050,19,14,07,053,*7E
$GPGSV,3,2,11,15,66,025,26,18,57,268,33,20,10,124,,22,10,072,*78
$GPGSV,3,3,11,23,35,312,22,24,60,182,11,29,00,217,*4A
$GPGLL,3728.79100,N,12657.15425,E,131712.00,A,A*6F
$GPRMC,131713.00,A,3728.79316,N,12657.15420,E,10.147,3.24,020524,,,A*5E
$GPVTG,3.24,T,,M,10.147,N,18.791,K,A*3D
$GPGGA,131713.00,3728.79316,N,12657.15420,E,1,04,3.30,73.0,M,18.4,M,,*66
$GPGSA,A,3,18,15,13,23,,,,,,,,,5.75,3.30,4.72*0A
$GPGSV,3,1,11,05,38,111,10,10,03,304,,13,36,050,16,14,07,053,*71
$GPGSV,3,2,11,15,66,025,26,18,57,268,34,20,10,124,,22,10,072,*7F
$GPGSV,3,3,11,23,35,312,26,24,60,182,09,29,00,217,*47
$GPGLL,3728.79316,N,12657.15420,E,131713.00,A,A*6E
$GPRMC,131714.00,A,3728.79403,N,12657.15485,E,8.177,4.98,020524,,,A*6F
$GPVTG,4.98,T,,M,8.177,N,15.143,K,A*03
$GPGGA,131714.00,3728.79403,N,12657.15485,E,1,04,3.30,72.9,M,18.4,M,,*65
$GPGSA,A,3,18,15,13,23,,,,,,,,,5.75,3.30,4.72*0A
$GPGSV,3,1,11,05,38,111,14,10,03,304,,13,36,050,16,14,07,053,*75
$GPGSV,3,2,11,15,66,025,26,18,57,268,34,20,10,124,,22,10,072,*7F
$GPGSV,3,3,11,23,35,312,30,24,60,182,08,29,00,217,*41
$GPGLL,3728.79403,N,12657.15485,E,131714.00,A,A*65
$GPRMC,131715.00,A,3728.79526,N,12657.15472,E,6.958,3.67,020524,,,A*6C
$GPVTG,3.67,T,,M,6.958,N,12.887,K,A*09
$GPGGA,131715.00,3728.79526,N,12657.15472,E,1,04,3.29,73.2,M,18.4,M,,*68
$GPGSA,A,3,18,15,13,23,,,,,,,,,5.75,3.29,4.71*01
$GPGSV,3,1,11,05,38,111,14,10,03,304,,13,36,050,15,14,07,053,*76
$GPGSV,3,2,11,15,66,025,26,18,57,268,33,20,10,124,,22,10,072,21*7B
$GPGSV,3,3,11,23,35,312,23,24,60,182,08,29,00,217,*43
$GPGLL,3728.79526,N,12657.15472,E,131715.00,A,A*6A
$GPRMC,131716.00,A,3728.79658,N,12657.15406,E,6.455,358.16,020524,,,A*6D
$GPVTG,358.16,T,,M,6.455,N,11.955,K,A*0F
$GPGGA,131716.00,3728.79658,N,12657.15406,E,1,05,1.66,73.2,M,18.4,M,,*6A
$GPGSA,A,3,18,15,05,13,23,,,,,,,,3.13,1.66,2.65*08
$GPGSV,3,1,11,05,38,111,14,10,03,304,,13,36,050,17,14,07,053,*74
$GPGSV,3,2,11,15,66,025,26,18,57,268,31,20,10,124,,22,10,072,19*72
$GPGSV,3,3,11,23,35,312,23,24,60,182,07,29,00,217,*4C
$GPGLL,3728.79658,N,12657.15406,E,131716.00,A,A*60
$GPRMC,131717.00,A,3728.79758,N,12657.15349,E,6.070,354.67,020524,,,A*68
$GPVTG,354.67,T,,M,6.070,N,11.242,K,A*0B
$GPGGA,131717.00,3728.79758,N,12657.15349,E,1,06,1.39,72.8,M,18.4,M,,*64
$GPGSA,A,3,18,15,05,13,24,23,,,,,,,2.99,1.39,2.65*07
$GPGSV,3,1,11,05,38,111,14,10,03,304,,13,36,050,17,14,07,053,*74
$GPGSV,3,2,11,15,66,025,25,18,57,268,25,20,10,124,,22,10,072,14*79
$GPGSV,3,3,11,23,35,312,26,24,60,182,21,29,00,217,*4D
$GPGLL,3728.79758,N,12657.15349,E,131717.00,A,A*6C
$GPRMC,131718.00,A,3728.79930,N,12657.15290,E,6.475,354.22,020524,,,A*62
$GPVTG,354.22,T,,M,6.475,N,11.992,K,A*0D
$GPGGA,131718.00,3728.79930,N,12657.15290,E,1,06,1.39,72.4,M,18.4,M,,*62
$GPGSA,A,3,18,15,05,13,24,23,,,,,,,2.99,1.39,2.65*07
$GPGSV,3,1,11,05,38,111,14,10,03,304,,13,36,050,17,14,07,053,*74
$GPGSV,3,2,11,15,66,025,24,18,57,268,27,20,10,124,,22,10,072,11*7F
$GPGSV,3,3,11,23,35,312,25,24,60,182,24,29,00,217,*4B
$GPGLL,3728.79930,N,12657.15290,E,131718.00,A,A*66
$GPRMC,131719.00,A,3728.80129,N,12657.15293,E,6.990,359.89,020524,,,A*6C
$GPVTG,359.89,T,,M,6.990,N,12.946,K,A*0D
$GPGGA,131719.00,3728.80129,N,12657.15293,E,1,06,1.39,72.4,M,18.4,M,,*66
$GPGSA,A,3,18,15,05,13,24,23,,,,,,,2.99,1.39,2.65*07
$GPGSV,3,1,11,05,38,111,14,10,03,304,,13,36,050,17,14,07,053,*74
$GPGSV,3,2,11,15,66,025,25,18,57,268,33,20,10,124,,22,10,072,08*73
$GPGSV,3,3,11,23,35,312,24,24,60,182,22,29,00,217,*4C
$GPGLL,3728.80129,N,12657.15293,E,131719.00,A,A*62
$GPRMC,131720.00,A,3728.80429,N,12657.15341,E,8.679,4.92,020524,,,A*6A
$GPVTG,4.92,T,,M,8.679,N,16.074,K,A*06
$GPGGA,131720.00,3728.80429,N,12657.15341,E,1,06,1.39,72.1,M,18.4,M,,*62
$GPGSA,A,3,18,15,05,13,24,23,,,,,,,2.99,1.39,2.65*07
$GPGSV,3,1,11,05,37,111,13,10,03,304,,13,36,050,18,14,07,053,*73
$GPGSV,3,2,11,15,66,025,24,18,57,268,33,20,10,124,,22,10,072,08*72
$GPGSV,3,3,11,23,35,312,27,24,60,182,19,29,00,217,*47
$GPGLL,3728.80429,N,12657.15341,E,131720.00,A,A*63
$GPRMC,131721.00,A,3728.80817,N,12657.15356,E,10.809,5.84,020524,,,A*5A
$GPVTG,5.84,T,,M,10.809,N,20.018,K,A*3F
$GPGGA,131721.00,3728.80817,N,12657.15356,E,1,06,1.39,71.6,M,18.4,M,,*60
$GPGSA,A,3,18,15,05,13,24,23,,,,,,,2.99,1.39,2.65*07
$GPGSV,3,1,11,05,37,111,13,10,03,304,,13,36,050,18,14,07,053,*73
$GPGSV,3,2,11,15,66,025,24,18,57,268,29,20,10,124,,22,10,072,08*79
$GPGSV,3,3,11,23,35,312,27,24,60,182,15,29,00,217,*4B
$GPGLL,3728.80817,N,12657.15356,E,131721.00,A,A*65
$GPRMC,131722.00,A,3728.81158,N,12657.15402,E,11.679,6.50,020524,,,A*5E
$GPVTG,6.50,T,,M,11.679,N,21.630,K,A*30
$GPGGA,131722.00,3728.81158,N,12657.15402,E,1,06,1.39,71.5,M,18.4,M,,*65
$GPGSA,A,3,18,15,05,13,24,23,,,,,,,2.99,1.39,2.65*07
$GPGSV,3,1,11,05,37,111,13,10,03,304,,13,36,050,20,14,07,053,*78
$GPGSV,3,2,11,15,66,025,22,18,57,268,30,20,10,124,,22,10,072,08*77
$GPGSV,3,3,11,23,35,312,27,24,60,182,12,29,00,217,*4C
$GPGLL,3728.81158,N,12657.15402,E,131722.00,A,A*63
$GPRMC,131723.00,A,3728.81467,N,12657.15418,E,11.450,5.67,020524,,,A*53
$GPVTG,5.67,T,,M,11.450,N,21.206,K,A*3F
$GPGGA,131723.00,3728.81467,N,12657.15418,E,1,06,1.39,71.0,M,18.4,M,,*63
$GPGSA,A,3,18,15,05,13,24,23,,,,,,,2.99,1.39,2.65*07
$GPGSV,3,1,11,05,37,111,13,10,03,304,,13,36,050,23,14,07,053,*7B
$GPGSV,3,2,11,15,66,025,22,18,57,268,30,20,10,124,,22,10,072,08*77
$GPGSV,3,3,11,23,35,312,25,24,60,182,12,29,00,217,*4E
$GPGLL,3728.81467,N,12657.15418,E,131723.00,A,A*60
$GPRMC,131724.00,A,3728.81749,N,12657.15429,E,10.785,3.83,020524,,,A*5F
$GPVTG,3.83,T,,M,10.785,N,19.974,K,A*3C
$GPGGA,131724.00,3728.81749,N,12657.15429,E,1,06,1.39,70.8,M,18.4,M,,*60
$GPGSA,A,3,18,15,05,13,24,23,,,,,,,2.99,1.39,2.65*07
$GPGSV,3,1,11,05,37,111,13,10,03,304,,13,36,050,22,14,07,053,*7A
$GPGSV,3,2,11,15,66,025,22,18,57,268,30,20,10,124,,22,10,072,08*77
$GPGSV,3,3,11,23,35,312,22,24,60,182,15,29,00,217,*4E
$GPGLL,3728.81749,N,12657.15429,E,131724.00,A,A*6A
$GPRMC,131725.00,A,3728.82102,N,12657.15564,E,11.715,6.27,020524,,,A*5F
$GPVTG,6.27,T,,M,11.715,N,21.696,K,A*37
$GPGGA,131725.00,3728.82102,N,12657.15564,E,1,06,1.39,70.1,M,18.4,M,,*6A
$GPGSA,A,3,18,15,05,13,24,23,,,,,,,2.99,1.39,2.65*07
$GPGSV,3,1,11,05,37,111,13,10,03,304,,13,36,050,20,14,07,053,*78
$GPGSV,3,2,11,15,66,025,21,18,57,268,28,20,10,124,,22,10,072,08*7D
$GPGSV,3,3,11,23,35,312,19,24,60,182,16,29,00,217,*45
$GPGLL,3728.82102,N,12657.15564,E,131725.00,A,A*69
$GPRMC,131726.00,A,3728.82415,N,12657.15674,E,11.579,8.79,020524,,,A*50
$GPVTG,8.79,T,,M,11.579,N,21.444,K,A*37
$GPGGA,131726.00,3728.82415,N,12657.15674,E,1,06,1.39,69.6,M,18.4,M,,*67
$GPGSA,A,3,18,15,05,13,24,23,,,,,,,2.99,1.39,2.65*07
$GPGSV,3,1,11,05,37,111,09,10,03,304,,13,36,050,19,14,07,053,*79
$GPGSV,3,2,11,15,66,025,22,18,57,268,29,20,10,124,,22,10,072,08*7F
$GPGSV,3,3,11,23,35,312,15,24,60,182,15,29,00,217,*4A
$GPGLL,3728.82415,N,12657.15674,E,131726.00,A,A*6B
$GPRMC,131727.00,A,3728.82673,N,12657.15792,E,10.940,11.27,020524,,,A*6E
$GPVTG,11.27,T,,M,10.940,N,20.260,K,A*02
$GPGGA,131727.00,3728.82673,N,12657.15792,E,1,06,1.39,69.0,M,18.4,M,,*6B
$GPGSA,A,3,18,15,05,13,24,23,,,,,,,2.99,1.39,2.65*07
$GPGSV,3,1,11,05,37,111,09,10,03,304,,13,36,050,23,14,07,053,*70
$GPGSV,3,2,11,15,66,025,22,18,57,268,29,20,10,124,,22,10,072,08*7F
$GPGSV,3,3,11,23,35,312,13,24,60,182,13,29,00,217,*4A
$GPGLL,3728.82673,N,12657.15792,E,131727.00,A,A*61
$GPRMC,131728.00,A,3728.82904,N,12657.15909,E,10.241,13.45,020524,,,A*6E
$GPVTG,13.45,T,,M,10.241,N,18.967,K,A*09
$GPGGA,131728.00,3728.82904,N,12657.15909,E,1,06,1.39,68.6,M,18.4,M,,*60
$GPGSA,A,3,18,15,05,13,24,23,,,,,,,2.99,1.39,2.65*07
$GPGSV,3,1,11,05,37,111,09,10,03,304,,13,36,050,22,14,07,053,*71
$GPGSV,3,2,11,15,66,025,20,18,57,268,29,20,10,124,,22,10,072,08*7D
$GPGSV,3,3,11,23,35,312,10,24,60,182,11,29,00,217,*4B
$GPGLL,3728.82904,N,12657.15909,E,131728.00,A,A*6D
$GPRMC,131729.00,A,3728.83155,N,12657.15979,E,9.803,13.41,020524,,,A*55
$GPVTG,13.41,T,,M,9.803,N,18.155,K,A*30
$GPGGA,131729.00,3728.83155,N,12657.15979,E,1,06,1.39,68.3,M,18.4,M,,*6E
$GPGSA,A,3,18,15,05,13,24,23,,,,,,,2.99,1.39,2.65*07
$GPGSV,3,1,11,05,37,111,09,10,03,304,,13,36,050,22,14,07,053,*71
$GPGSV,3,2,11,15,66,025,20,18,57,268,29,20,10,124,,22,10,072,08*7D
$GPGSV,3,3,11,23,35,312,10,24,60,182,11,29,00,217,*4B
$GPGLL,3728.83155,N,12657.15979,E,131729.00,A,A*66
$GPRMC,131730.00,A,3728.83307,N,12657.16065,E,8.652,13.57,020524,,,A*53
$GPVTG,13.57,T,,M,8.652,N,16.024,K,A*35
$GPGGA,131730.00,3728.83307,N,12657.16065,E,1,06,1.39,67.8,M,18.4,M,,*60
$GPGSA,A,3,18,15,05,13,24,23,,,,,,,2.99,1.39,2.65*07
$GPGSV,3,1,11,05,37,111,09,10,03,304,,13,36,050,22,14,07,053,*71
$GPGSV,3,2,11,15,66,025,20,18,57,268,28,20,10,124,,22,10,072,08*7C
$GPGSV,3,3,11,23,35,312,10,24,60,182,10,29,00,217,*4A
$GPGLL,3728.83307,N,12657.16065,E,131730.00,A,A*6C
$GPRMC,131731.00,A,3728.83485,N,12657.16121,E,7.936,12.97,020524,,,A*51
$GPVTG,12.97,T,,M,7.936,N,14.697,K,A*36
$GPGGA,131731.00,3728.83485,N,12657.16121,E,1,05,1.66,67.8,M,18.4,M,,*64
$GPGSA,A,3,18,15,05,13,23,,,,,,,,3.12,1.66,2.65*09
$GPGSV,3,1,11,05,37,111,09,10,03,304,,13,36,050,23,14,07,053,*70
$GPGSV,3,2,11,15,66,025,21,18,57,268,30,20,10,124,,22,10,072,08*74
$GPGSV,3,3,11,23,35,312,10,24,60,182,08,29,00,217,*43
$GPGLL,3728.83485,N,12657.16121,E,131731.00,A,A*61
$GPRMC,131732.00,A,3728.83579,N,12657.16125,E,6.447,10.02,020524,,,A*50
$GPVTG,10.02,T,,M,6.447,N,11.941,K,A*33
$GPGGA,131732.00,3728.83579,N,12657.16125,E,1,05,1.66,67.8,M,18.4,M,,*61
$GPGSA,A,3,18,15,05,13,23,,,,,,,,3.12,1.66,2.65*09
$GPGSV,3,1,11,05,37,111,12,10,03,304,,13,36,050,24,14,07,053,*7D
$GPGSV,3,2,11,15,66,025,22,18,57,267,29,20,10,124,,22,10,072,08*70
$GPGSV,3,3,11,23,35,312,13,24,60,182,08,29,00,217,*40
$GPGLL,3728.83579,N,12657.16125,E,131732.00,A,A*64
$GPRMC,131733.00,A,3728.83640,N,12657.16172,E,5.429,8.70,020524,,,A*6D
$GPVTG,8.70,T,,M,5.429,N,10.054,K,A*08
$GPGGA,131733.00,3728.83640,N,12657.16172,E,1,06,1.39,67.5,M,18.4,M,,*6F
$GPGSA,A,3,18,15,05,13,24,23,,,,,,,2.99,1.39,2.65*07
$GPGSV,3,1,11,05,37,111,12,10,03,304,,13,36,050,21,14,07,053,*78
$GPGSV,3,2,11,15,66,025,22,18,57,267,30,20,10,124,,22,10,072,08*78
$GPGSV,3,3,11,23,35,312,13,24,60,182,11,29,00,217,*48
$GPGLL,3728.83640,N,12657.16172,E,131733.00,A,A*6E
$GPRMC,131734.00,A,3728.83686,N,12657.16171,E,4.498,6.43,020524,,,A*66
$GPVTG,6.43,T,,M,4.498,N,8.329,K,A*3D
$GPGGA,131734.00,3728.83686,N,12657.16171,E,1,06,1.39,67.1,M,18.4,M,,*65
$GPGSA,A,3,18,15,05,13,24,23,,,,,,,2.99,1.39,2.65*07
$GPGSV,3,1,11,05,37,111,12,10,03,304,,13,36,050,18,14,07,053,*72
$GPGSV,3,2,11,15,66,025,22,18,57,267,30,20,10,124,,22,10,072,08*78
$GPGSV,3,3,11,23,35,312,13,24,60,182,13,29,00,217,*4A
$GPGLL,3728.83686,N,12657.16171,E,131734.00,A,A*60
$GPRMC,131735.00,A,3728.83678,N,12657.16199,E,3.456,5.76,020524,,,A*60
$GPVTG,5.76,T,,M,3.456,N,6.401,K,A*3E
$GPGGA,131735.00,3728.83678,N,12657.16199,E,1,06,1.39,67.0,M,18.4,M,,*62
$GPGSA,A,3,18,15,05,13,24,23,,,,,,,2.99,1.39,2.65*07
$GPGSV,3,1,11,05,37,111,12,10,03,304,,13,36,050,14,14,07,053,*7E
$GPGSV,3,2,11,15,66,025,22,18,57,267,30,20,10,124,,22,10,072,08*78
$GPGSV,3,3,11,23,35,312,13,24,60,182,14,29,00,217,*4D
$GPGLL,3728.83678,N,12657.16199,E,131735.00,A,A*66
$GPRMC,131736.00,A,3728.83728,N,12657.16179,E,3.046,2.69,020524,,,A*65
$GPVTG,2.69,T,,M,3.046,N,5.642,K,A*34
$GPGGA,131736.00,3728.83728,N,12657.16179,E,1,06,1.39,66.7,M,18.4,M,,*6D
$GPGSA,A,3,18,15,05,13,24,23,,,,,,,2.99,1.39,2.65*07
$GPGSV,3,1,11,05,37,111,12,10,03,304,,13,36,050,13,14,07,053,*79
$GPGSV,3,2,11,15,66,025,22,18,57,267,30,20,10,124,,22,10,072,08*78
$GPGSV,3,3,11,23,35,312,13,24,60,182,14,29,00,217,*4D
$GPGLL,3728.83728,N,12657.16179,E,131736.00,A,A*6F
$GPRMC,131737.00,A,3728.83778,N,12657.16154,E,2.748,0.56,020524,,,A*68
$GPVTG,0.56,T,,M,2.748,N,5.090,K,A*3B
$GPGGA,131737.00,3728.83778,N,12657.16154,E,1,06,1.39,66.7,M,18.4,M,,*66
$GPGSA,A,3,18,15,05,13,24,23,,,,,,,2.99,1.39,2.65*07
$GPGSV,3,1,11,05,37,111,12,10,03,304,,13,36,050,11,14,07,053,*7B
$GPGSV,3,2,11,15,66,025,22,18,57,267,29,20,10,124,,22,10,072,08*70
$GPGSV,3,3,11,23,35,312,13,24,60,182,11,29,00,217,*48
$GPGLL,3728.83778,N,12657.16154,E,131737.00,A,A*64
$GPRMC,131738.00,A,3728.83850,N,12657.16118,E,2.521,358.15,020524,,,A*6E
$GPVTG,358.15,T,,M,2.521,N,4.668,K,A*3F
$GPGGA,131738.00,3728.83850,N,12657.16118,E,1,04,2.16,66.8,M,18.4,M,,*67
$GPGSA,A,3,18,15,05,23,,,,,,,,,3.49,2.16,2.74*01
$GPGSV,3,1,11,05,37,111,14,10,03,304,,13,36,050,09,14,07,053,*74
$GPGSV,3,2,11,15,66,025,21,18,57,267,28,20,10,124,,22,10,072,09*73
$GPGSV,3,3,11,23,35,312,18,24,60,182,08,29,00,217,*4B
$GPGLL,3728.83850,N,12657.16118,E,131738.00,A,A*66
$GPRMC,131739.00,A,3728.83946,N,12657.16088,E,2.526,357.01,020524,,,A*6C
$GPVTG,357.01,T,,M,2.526,N,4.677,K,A*3C
$GPGGA,131739.00,3728.83946,N,12657.16088,E,1,04,2.16,67.0,M,18.4,M,,*61
$GPGSA,A,3,18,15,05,23,,,,,,,,,3.49,2.16,2.74*01
$GPGSV,3,1,11,05,37,111,14,10,03,304,,13,36,050,09,14,07,053,*74
$GPGSV,3,2,11,15,66,025,21,18,57,267,28,20,10,124,,22,10,072,09*73
$GPGSV,3,3,11,23,35,312,18,24,60,182,08,29,00,217,*4B
$GPGLL,3728.83946,N,12657.16088,E,131739.00,A,A*69
$GPRMC,131740.00,A,3728.83999,N,12657.16071,E,2.159,,020524,,,A*74
$GPVTG,,T,,M,2.159,N,3.999,K,A*26
$GPGGA,131740.00,3728.83999,N,12657.16071,E,1,04,2.16,67.4,M,18.4,M,,*6F
$GPGSA,A,3,18,15,05,23,,,,,,,,,3.49,2.16,2.74*01
$GPGSV,3,1,11,05,37,111,14,10,03,304,,13,36,050,09,14,07,053,*74
$GPGSV,3,2,11,15,66,025,21,18,57,267,28,20,10,124,,22,10,072,09*73
$GPGSV,3,3,11,23,35,312,18,24,60,182,08,29,00,217,*4B
$GPGLL,3728.83999,N,12657.16071,E,131740.00,A,A*63
$GPRMC,131741.00,A,3728.84042,N,12657.16046,E,1.829,,020524,,,A*74
$GPVTG,,T,,M,1.829,N,3.387,K,A*2E
$GPGGA,131741.00,3728.84042,N,12657.16046,E,1,04,2.16,67.6,M,18.4,M,,*60
$GPGSA,A,3,18,15,05,23,,,,,,,,,3.49,2.16,2.74*01
$GPGSV,3,1,11,05,37,111,14,10,03,304,,13,36,050,09,14,07,053,*74
$GPGSV,3,2,11,15,66,025,22,18,57,267,28,20,10,124,,22,10,072,09*70
$GPGSV,3,3,11,23,35,312,18,24,60,182,08,29,00,217,*4B
$GPGLL,3728.84042,N,12657.16046,E,131741.00,A,A*6E
$GPRMC,131742.00,A,3728.84054,N,12657.15997,E,1.327,,020524,,,A*73
$GPVTG,,T,,M,1.327,N,2.458,K,A*2F
$GPGGA,131742.00,3728.84054,N,12657.15997,E,1,04,2.16,67.7,M,18.4,M,,*63
$GPGSA,A,3,18,15,05,23,,,,,,,,,3.49,2.16,2.74*01
$GPGSV,3,1,11,05,37,111,14,10,03,304,,13,36,050,09,14,07,053,*74
$GPGSV,3,2,11,15,66,025,21,18,57,267,29,20,10,124,,22,10,072,09*72
$GPGSV,3,3,11,23,35,312,18,24,60,182,08,29,00,217,*4B
$GPGLL,3728.84054,N,12657.15997,E,131742.00,A,A*6C
$GPRMC,131743.00,A,3728.84097,N,12657.15994,E,1.194,,020524,,,A*74
$GPVTG,,T,,M,1.194,N,2.212,K,A*2D
$GPGGA,131743.00,3728.84097,N,12657.15994,E,1,04,2.16,67.9,M,18.4,M,,*60
$GPGSA,A,3,18,15,05,23,,,,,,,,,3.49,2.16,2.74*01
$GPGSV,3,1,11,05,37,111,14,10,03,304,,13,36,050,09,14,07,053,*74
$GPGSV,3,2,11,15,66,025,21,18,57,267,30,20,10,124,,22,10,072,09*7A
$GPGSV,3,3,11,23,35,312,18,24,60,182,08,29,00,217,*4B
$GPGLL,3728.84097,N,12657.15994,E,131743.00,A,A*61
$GPRMC,131744.00,A,3728.84118,N,12657.15966,E,0.791,,020524,,,A*7A
$GPVTG,,T,,M,0.791,N,1.466,K,A*29
$GPGGA,131744.00,3728.84118,N,12657.15966,E,1,05,1.65,67.8,M,18.4,M,,*6B
$GPGSA,A,3,18,15,05,13,23,,,,,,,,3.12,1.65,2.65*0A
$GPGSV,3,1,11,05,37,111,12,10,03,304,,13,36,050,18,14,07,053,*72
$GPGSV,3,2,11,15,66,025,19,18,57,267,29,20,10,124,,22,10,072,07*77
$GPGSV,3,3,11,23,35,312,16,24,60,182,15,29,00,217,*49
$GPGLL,3728.84118,N,12657.15966,E,131744.00,A,A*6D
$GPRMC,131745.00,A,3728.84161,N,12657.15953,E,0.678,,020524,,,A*75
$GPVTG,,T,,M,0.678,N,1.256,K,A*2A
$GPGGA,131745.00,3728.84161,N,12657.15953,E,1,05,1.65,67.6,M,18.4,M,,*6C
$GPGSA,A,3,18,15,05,13,23,,,,,,,,3.12,1.65,2.65*0A
$GPGSV,3,1,11,05,37,111,12,10,03,304,,13,36,050,19,14,07,053,*73
$GPGSV,3,2,11,15,66,025,19,18,57,267,30,20,10,124,,22,10,072,07*7F
$GPGSV,3,3,11,23,35,312,20,24,60,182,15,29,00,217,*4C
$GPGLL,3728.84161,N,12657.15953,E,131745.00,A,A*64
$GPRMC,131746.00,A,3728.84119,N,12657.15924,E,0.463,,020524,,,A*71
$GPVTG,,T,,M,0.463,N,0.857,K,A*28
$GPGGA,131746.00,3728.84119,N,12657.15924,E,1,06,1.39,67.4,M,18.4,M,,*68
$GPGSA,A,3,18,15,05,13,24,23,,,,,,,2.99,1.39,2.64*06
$GPGSV,3,1,11,05,37,111,12,10,03,304,,13,36,050,22,14,07,053,*7B
$GPGSV,3,2,11,15,66,025,18,18,57,267,30,20,10,124,,22,10,072,07*7E
$GPGSV,3,3,11,23,35,312,22,24,60,182,15,29,00,217,*4E
$GPGLL,3728.84119,N,12657.15924,E,131746.00,A,A*68
$GPRMC,131747.00,A,3728.84147,N,12657.15878,E,0.700,,020524,,,A*75
$GPVTG,,T,,M,0.700,N,1.296,K,A*28
$GPGGA,131747.00,3728.84147,N,12657.15878,E,1,06,1.39,67.0,M,18.4,M,,*6E
$GPGSA,A,3,18,15,05,13,24,23,,,,,,,2.99,1.39,2.64*06
$GPGSV,3,1,11,05,37,111,12,10,03,304,,13,36,050,23,14,07,053,*7A
$GPGSV,3,2,11,15,66,025,18,18,57,267,29,20,10,124,,22,10,072,07*76
$GPGSV,3,3,11,23,35,312,21,24,60,182,15,29,00,217,*4D
$GPGLL,3728.84147,N,12657.15878,E,131747.00,A,A*6A
$GPRMC,131748.00,A,3728.84197,N,12657.15907,E,0.327,,020524,,,A*7F
$GPVTG,,T,,M,0.327,N,0.606,K,A*25
$GPGGA,131748.00,3728.84197,N,12657.15907,E,1,06,1.39,66.9,M,18.4,M,,*6D
$GPGSA,A,3,18,15,05,13,24,23,,,,,,,2.99,1.39,2.64*06
$GPGSV,3,1,11,05,37,111,12,10,03,304,,13,36,050,22,14,07,053,*7B
$GPGSV,3,2,11,15,66,025,17,18,57,267,28,20,10,124,,22,10,072,07*78
$GPGSV,3,3,11,23,35,312,21,24,60,182,15,29,00,217,*4D
$GPGLL,3728.84197,N,12657.15907,E,131748.00,A,A*61
$GPRMC,131749.00,A,3728.84212,N,12657.15899,E,0.314,,020524,,,A*76
$GPVTG,,T,,M,0.314,N,0.582,K,A*2A
$GPGGA,131749.00,3728.84212,N,12657.15899,E,1,06,1.39,66.8,M,18.4,M,,*65
$GPGSA,A,3,18,15,05,13,24,23,,,,,,,2.99,1.39,2.64*06
$GPGSV,3,1,11,05,37,111,12,10,03,304,,13,36,050,21,14,07,053,*78
$GPGSV,3,2,11,15,66,025,17,18,57,267,28,20,10,124,,22,10,072,07*78
$GPGSV,3,3,11,23,35,312,21,24,60,182,15,29,00,217,*4D
$GPGLL,3728.84212,N,12657.15899,E,131749.00,A,A*68
$GPRMC,131750.00,A,3728.84300,N,12657.15895,E,0.581,,020524,,,A*7A
$GPVTG,,T,,M,0.581,N,1.075,K,A*2C
$GPGGA,131750.00,3728.84300,N,12657.15895,E,1,06,1.39,66.6,M,18.4,M,,*6D
$GPGSA,A,3,18,15,05,13,24,23,,,,,,,2.99,1.39,2.64*06
$GPGSV,3,1,11,05,37,111,10,10,03,304,,13,36,050,22,14,07,053,*79
$GPGSV,3,2,11,15,66,025,17,18,57,267,27,20,10,124,,22,10,072,09*79
$GPGSV,3,3,11,23,35,312,20,24,60,182,15,29,00,217,*4C
$GPGLL,3728.84300,N,12657.15895,E,131750.00,A,A*6E
$GPRMC,131751.00,A,3728.84335,N,12657.15902,E,0.519,,020524,,,A*73
$GPVTG,,T,,M,0.519,N,0.962,K,A*23
$GPGGA,131751.00,3728.84335,N,12657.15902,E,1,06,1.39,67.0,M,18.4,M,,*62
$GPGSA,A,3,18,15,05,13,24,23,,,,,,,2.99,1.39,2.64*06
$GPGSV,3,1,11,05,37,111,10,10,03,304,,13,36,050,22,14,07,053,*79
$GPGSV,3,2,11,15,66,025,15,18,57,267,26,20,10,124,,22,10,072,09*7A
$GPGSV,3,3,11,23,35,312,18,24,60,182,15,29,00,217,*47
$GPGLL,3728.84335,N,12657.15902,E,131751.00,A,A*66
$GPRMC,131752.00,A,3728.84353,N,12657.15874,E,0.564,,020524,,,A*7A
$GPVTG,,T,,M,0.564,N,1.045,K,A*24
$GPGGA,131752.00,3728.84353,N,12657.15874,E,1,06,1.39,67.1,M,18.4,M,,*60
$GPGSA,A,3,18,15,05,13,24,23,,,,,,,2.99,1.39,2.64*06
$GPGSV,3,1,11,05,37,111,10,10,03,304,,13,36,050,22,14,07,053,*79
$GPGSV,3,2,11,15,66,025,16,18,57,267,26,20,10,124,,22,10,072,09*79
$GPGSV,3,3,11,23,35,312,17,24,60,182,15,29,00,217,*48
$GPGLL,3728.84353,N,12657.15874,E,131752.00,A,A*65
$GPRMC,131753.00,A,3728.84442,N,12657.15900,E,0.975,,020524,,,A*72
$GPVTG,,T,,M,0.975,N,1.806,K,A*27
$GPGGA,131753.00,3728.84442,N,12657.15900,E,1,06,1.39,67.2,M,18.4,M,,*67
$GPGSA,A,3,18,15,05,13,24,23,,,,,,,2.99,1.39,2.64*06
$GPGSV,3,1,11,05,37,111,10,10,03,304,,13,36,050,22,14,07,053,*79
$GPGSV,3,2,11,15,66,025,18,18,57,267,26,20,10,124,,22,10,072,09*77
$GPGSV,3,3,11,23,35,312,15,24,60,182,15,29,00,217,*4A
$GPGLL,3728.84442,N,12657.15900,E,131753.00,A,A*61
$GPRMC,131754.00,A,3728.84442,N,12657.15923,E,0.655,,020524,,,A*79
$GPVTG,,T,,M,0.655,N,1.212,K,A*25
$GPGGA,131754.00,3728.84442,N,12657.15923,E,1,06,1.39,67.4,M,18.4,M,,*67
$GPGSA,A,3,18,15,05,13,24,23,,,,,,,2.99,1.39,2.64*06
$GPGSV,3,1,11,05,37,111,10,10,03,304,,13,36,050,23,14,07,053,*78
$GPGSV,3,2,11,15,66,025,20,18,57,267,25,20,10,124,,22,10,072,09*7F
$GPGSV,3,3,11,23,35,312,15,24,60,182,15,29,00,217,*4A
