1,64,087,24*4F
$GPGLL,,,,,211503.00,V,N*4E
$GPRMC,211504.00,V,,,,,,,020524,,,N*7F
$GPVTG,,,,,,,,,N*30
$GPGGA,211504.00,,,,,0,00,99.99,,,,,,*65
$GPGSA,A,1,,,,,,,,,,,,,99.99,99.99,99.99*30
$GPGSV,2,1,06,01,57,038,24,16,61,280,16,18,15,091,26,26,67,024,30*7E
$GPGSV,2,2,06,28,,,29,31,64,087,23*40
$GPGLL,,,,,211504.00,V,N*49
$GPRMC,211505.00,V,,,,,,,020524,,,N*7E
$GPVTG,,,,,,,,,N*30
$GPGGA,211505.00,,,,,0,03,4.20,,,,,,*51
$GPGSA,A,1,26,31,16,,,,,,,,,,4.32,4.20,1.00*03
$GPGSV,2,1,06,01,57,038,23,16,61,280,15,18,15,091,26,26,67,024,31*7B
$GPGSV,2,2,06,28,,,27,31,64,087,21*4C
$GPGLL,,,,,211505.00,V,N*48
$GPRMC,211506.00,V,,,,,,,020524,,,N*7D
$GPVTG,,,,,,,,,N*30
$GPGGA,211506.00,,,,,0,00,99.99,,,,,,*67
$GPGSA,A,1,,,,,,,,,,,,,99.99,99.99,99.99*30
$GPGSV,2,1,07,01,57,038,23,03,,,28,16,61,280,14,18,15,091,28*4D
$GPGSV,2,2,07,26,67,024,31,28,,,26,31,64,087,20*7C
$GPGLL,,,,,211506.00,V,N*4B
$GPRMC,211507.00,V,,,,,,,020524,,,N*7C
$GPVTG,,,,,,,,,N*30
$GPGGA,211507.00,,,,,0,00,99.99,,,,,,*66
$GPGSA,A,1,,,,,,,,,,,,,99.99,99.99,99.99*30
$GPGSV,2,1,06,01,57,038,23,16,61,280,13,18,15,091,28,26,67,024,31*73
$GPGSV,2,2,06,28,,,26,31,64,087,19*46
$GPGLL,,,,,211507.00,V,N*4A
$GPRMC,211508.00,V,,,,,,,020524,,,N*73
$GPVTG,,,,,,,,,N*30
$GPGGA,211508.00,,,,,0,00,99.99,,,,,,*69
$GPGSA,A,1,,,,,,,,,,,,,99.99,99.99,99.99*30
$GPGSV,2,1,06,01,57,038,24,16,61,280,13,18,15,091,27,26,67,024,31*7B
$GPGSV,2,2,06,28,,,27,31,64,087,19*47
$GPGLL,,,,,211508.00,V,N*45
$GPRMC,211509.00,V,,,,,,,020524,,,N*72
$GPVTG,,,,,,,,,N*30
$GPGGA,211509.00,,,,,0,00,99.99,,,,,,*68
$GPGSA,A,1,,,,,,,,,,,,,99.99,99.99,99.99*30
$GPGSV,2,1,06,01,57,038,25,16,61,280,15,18,15,091,28,26,67,024,30*72
$GPGSV,2,2,06,28,,,28,31,64,087,18*49
$GPGLL,,,,,211509.00,V,N*44
$GPRMC,211510.00,V,,,,,,,020524,,,N*7A
$GPVTG,,,,,,,,,N*30
$GPGGA,211510.00,,,,,0,00,99.99,,,,,,*60
$GPGSA,A,1,,,,,,,,,,,,,99.99,99.99,99.99*30
$GPGSV,2,1,06,01,57,038,24,16,61,280,17,18,15,091,28,26,67,024,29*79
$GPGSV,2,2,06,28,,,28,31,64,087,20*42
$GPGLL,,,,,211510.00,V,N*4C
$GPRMC,211511.00,V,,,,,,,020524,,,N*7B
$GPVTG,,,,,,,,,N*30
$GPGGA,211511.00,,,,,0,00,99.99,,,,,,*61
$GPGSA,A,1,,,,,,,,,,,,,99.99,99.99,99.99*30
$GPGSV,2,1,06,01,57,038,24,16,61,280,18,18,15,091,27,26,67,024,30*71
$GPGSV,2,2,06,28,,,29,31,64,087,18*48
$GPGLL,,,,,211511.00,V,N*4D
$GPRMC,211512.00,V,,,,,,,020524,,,N*78
$GPVTG,,,,,,,,,N*30
$GPGGA,211512.00,,,,,0,03,4.19,,,,,,*5D
$GPGSA,A,1,26,31,16,,,,,,,,,,4.31,4.19,1.00*0A
$GPGSV,2,1,06,01,57,038,25,16,61,280,18,18,15,091,27,26,67,024,30*70
$GPGSV,2,2,06,28,,,30,31,64,087,18*40
$GPGLL,,,,,211512.00,V,N*4E
$GPRMC,211513.00,V,,,,,,,020524,,,N*79
$GPVTG,,,,,,,,,N*30
$GPGGA,211513.00,,,,,0,03,4.19,,,,,,*5C
$GPGSA,A,1,26,31,16,,,,,,,,,,4.31,4.19,1.00*0A
$GPGSV,2,1,06,01,57,038,26,16,61,280,20,18,15,091,27,26,67,024,30*78
$GPGSV,2,2,06,28,,,29,31,64,087,17*47
$GPGLL,,,,,211513.00,V,N*4F
$GPRMC,211514.00,V,,,,,,,020524,,,N*7E
$GPVTG,,,,,,,,,N*30
$GPGGA,211514.00,,,,,0,03,4.19,,,,,,*5B
$GPGSA,A,1,26,31,16,,,,,,,,,,4.31,4.19,1.00*0A
$GPGSV,2,1,06,01,57,038,26,16,61,281,20,18,15,091,27,26,67,024,30*79
$GPGSV,2,2,06,28,,,29,31,64,087,17*47
$GPGLL,,,,,211514.00,V,N*48
$GPRMC,211515.00,V,,,,,,,020524,,,N*7F
$GPVTG,,,,,,,,,N*30
$GPGGA,211515.00,,,,,0,03,4.19,,,,,,*5A
$GPGSA,A,1,26,31,16,,,,,,,,,,4.31,4.19,1.00*0A
$GPGSV,2,1,06,01,57,038,25,16,61,281,20,18,15,091,27,26,67,024,30*7A
$GPGSV,2,2,06,28,,,28,31,64,087,16*47
$GPGLL,,,,,211515.00,V,N*49
$GPRMC,211516.00,V,,,,,,,020524,,,N*7C
$GPVTG,,,,,,,,,N*30
$GPGGA,211516.00,,,,,0,00,99.99,,,,,,*66
$GPGSA,A,1,,,,,,,,,,,,,99.99,99.99,99.99*30
$GPGSV,2,1,06,01,57,038,25,16,61,281,20,18,15,091,28,26,67,024,30*75
$GPGSV,2,2,06,28,,,28,31,64,087,15*44
$GPGLL,,,,,211516.00,V,N*4A
$GPRMC,211517.00,V,,,,,,,020524,,,N*7D
$GPVTG,,,,,,,,,N*30
$GPGGA,211517.00,,,,,0,00,99.99,,,,,,*67
$GPGSA,A,1,,,,,,,,,,,,,99.99,99.99,99.99*30
$GPGSV,2,1,06,01,57,038,26,16,61,281,20,18,15,091,28,26,67,024,30*76
$GPGSV,2,2,06,28,,,28,31,64,087,15*44
$GPGLL,,,,,211517.00,V,N*4B
$GPRMC,211518.00,V,,,,,,,020524,,,N*72
$GPVTG,,,,,,,,,N*30
$GPGGA,211518.00,,,,,0,00,99.99,,,,,,*68
$GPGSA,A,1,,,,,,,,,,,,,99.99,99.99,99.99*30
$GPGSV,2,1,06,01,57,038,26,16,61,281,19,18,15,091,28,26,67,024,31*7D
$GPGSV,2,2,06,28,,,28,31,64,087,17*46
$GPGLL,,,,,211518.00,V,N*44
$GPRMC,211519.00,V,,,,,,,020524,,,N*73
$GPVTG,,,,,,,,,N*30
$GPGGA,211519.00,,,,,0,00,99.99,,,,,,*69
$GPGSA,A,1,,,,,,,,,,,,,99.99,99.99,99.99*30
$GPGSV,2,1,06,01,57,038,27,16,61,281,19,18,15,091,28,26,67,025,31*7D
$GPGSV,2,2,06,28,,,28,31,64,087,18*49
$GPGLL,,,,,211519.00,V,N*45
$GPRMC,211520.00,V,,,,,,,020524,,,N*79
$GPVTG,,,,,,,,,N*30
$GPGGA,211520.00,,,,,0,00,99.99,,,,,,*63
$GPGSA,A,1,,,,,,,,,,,,,99.99,99.99,99.99*30
$GPGSV,2,1,06,01,57,038,27,16,61,281,18,18,15,091,28,26,67,025,30*7D
$GPGSV,2,2,06,28,,,28,31,64,088,18*46
$GPGLL,,,,,211520.00,V,N*4F
$GPRMC,211521.00,V,,,,,,,020524,,,N*78
$GPVTG,,,,,,,,,N*30
$GPGGA,211521.00,,,,,0,00,99.99,,,,,,*62
$GPGSA,A,1,,,,,,,,,,,,,99.99,99.99,99.99*30
$GPGSV,2,1,06,01,57,038,27,16,61,281,18,18,15,091,28,26,67,025,30*7D
$GPGSV,2,2,06,28,,,29,31,64,088,19*46
$GPGLL,,,,,211521.00,V,N*4E
$GPRMC,211522.00,V,,,,,,,020524,,,N*7B
$GPVTG,,,,,,,,,N*30
$GPGGA,211522.00,,,,,0,03,4.18,,,,,,*5F
$GPGSA,A,1,26,31,16,,,,,,,,,,4.30,4.18,1.00*0A
$GPGSV,2,1,06,01,57,038,26,16,61,281,18,18,15,091,29,26,67,025,31*7C
$GPGSV,2,2,06,28,,,28,31,64,088,21*4C
$GPGLL,,,,,211522.00,V,N*4D
$GPRMC,211523.00,V,,,,,,,020524,,,N*7A
$GPVTG,,,,,,,,,N*30
$GPGGA,211523.00,,,,,0,03,4.18,,,,,,*5E
$GPGSA,A,1,26,31,16,,,,,,,,,,4.30,4.18,1.00*0A
$GPGSV,2,1,06,01,57,038,26,16,61,281,19,18,15,091,29,26,67,025,31*7D
$GPGSV,2,2,06,28,,,28,31,64,088,22*4F
$GPGLL,,,,,211523.00,V,N*4C
$GPRMC,211524.00,V,,,,,,,020524,,,N*7D
$GPVTG,,,,,,,,,N*30
$GPGGA,211524.00,,,,,0,03,4.18,,,,,,*59
$GPGSA,A,1,26,31,16,,,,,,,,,,4.30,4.18,1.00*0A
$GPGSV,2,1,06,01,57,038,25,16,61,281,20,18,15,091,30,26,67,025,31*7C
$GPGSV,2,2,06,28,,,28,31,64,088,21*4C
$GPGLL,,,,,211524.00,V,N*4B
$GPRMC,211525.00,V,,,,,,,020524,,,N*7C
$GPVTG,,,,,,,,,N*30
$GPGGA,211525.00,,,,,0,03,4.18,,,,,,*58
$GPGSA,A,1,26,31,16,,,,,,,,,,4.30,4.18,1.00*0A
$GPGSV,2,1,06,01,57,038,23,16,61,281,20,18,15,091,29,26,67,025,31*72
$GPGSV,2,2,06,28,,,27,31,64,088,19*48
$GPGLL,,,,,211525.00,V,N*4A
$GPRMC,211526.00,V,,,,,,,020524,,,N*7F
$GPVTG,,,,,,,,,N*30
$GPGGA,211526.00,,,,,0,03,4.18,,,,,,*5B
$GPGSA,A,1,26,31,16,,,,,,,,,,4.30,4.18,1.00*0A
$GPGSV,2,1,06,01,57,038,24,16,61,281,21,18,15,091,30,26,67,025,32*7F
$GPGSV,2,2,06,28,,,27,31,64,088,19*48
$GPGLL,,,,,211526.00,V,N*49
$GPRMC,211527.00,V,,,,,,,020524,,,N*7E
$GPVTG,,,,,,,,,N*30
$GPGGA,211527.00,,,,,0,03,4.18,,,,,,*5A
$GPGSA,A,1,26,31,16,,,,,,,,,,4.30,4.18,1.00*0A
$GPGSV,2,1,06,01,57,038,26,16,61,281,21,18,15,091,30,26,67,025,33*7C
$GPGSV,2,2,06,28,,,27,31,64,088,18*49
$GPGLL,,,,,211527.00,V,N*48
$GPRMC,211528.00,V,,,,,,,020524,,,N*71
$GPVTG,,,,,,,,,N*30
$GPGGA,211528.00,,,,,0,03,4.18,,,,,,*55
$GPGSA,A,1,26,31,16,,,,,,,,,,4.30,4.18,1.00*0A
$GPGSV,2,1,06,01,57,038,26,16,61,281,20,18,15,091,30,26,67,025,31*7F
$GPGSV,2,2,06,28,,,27,31,64,088,19*48
$GPGLL,,,,,211528.00,V,N*47
$GPRMC,211529.00,V,,,,,,,020524,,,N*70
$GPVTG,,,,,,,,,N*30
$GPGGA,211529.00,,,,,0,03,4.18,,,,,,*54
$GPGSA,A,1,26,31,16,,,,,,,,,,4.29,4.18,1.00*02
$GPGSV,2,1,06,01,57,038,27,16,61,281,19,18,15,091,30,26,67,025,31*74
$GPGSV,2,2,06,28,,,27,31,64,088,20*42
$GPGLL,,,,,211529.00,V,N*46
$GPRMC,211530.00,V,,,,,,,020524,,,N*78
$GPVTG,,,,,,,,,N*30
$GPGGA,211530.00,,,,,0,03,4.18,,,,,,*5C
$GPGSA,A,1,26,31,16,,,,,,,,,,4.29,4.18,1.00*02
$GPGSV,2,1,06,01,57,038,27,16,61,281,20,18,15,091,29,26,67,025,30*77
$GPGSV,2,2,06,28,,,27,31,64,088,20*42
$GPGLL,,,,,211530.00,V,N*4E
$GPRMC,211531.00,V,,,,,,,020524,,,N*79
$GPVTG,,,,,,,,,N*30
$GPGGA,211531.00,,,,,0,04,4.55,,,,,,*53
$GPGSA,A,1,26,28,31,16,,,,,,,,,9.06,4.55,7.84*0B
$GPGSV,2,1,06,01,57,038,29,16,61,281,20,18,15,091,29,26,67,025,31*78
$GPGSV,2,2,06,28,36,110,27,31,64,088,21*76
$GPGLL,,,,,211531.00,V,N*4F
$GPRMC,211532.00,V,,,,,,,020524,,,N*7A
$GPVTG,,,,,,,,,N*30
$GPGGA,211532.00,,,,,0,04,4.55,,,,,,*50
$GPGSA,A,1,26,28,31,16,,,,,,,,,9.06,4.55,7.84*0B
$GPGSV,2,1,06,01,57,038,30,16,61,281,20,18,15,091,29,26,67,025,32*73
$GPGSV,2,2,06,28,36,110,27,31,64,088,22*75
$GPGLL,,,,,211532.00,V,N*4C
$GPRMC,211533.00,V,,,,,,,020524,,,N*7B
$GPVTG,,,,,,,,,N*30
$GPGGA,211533.00,,,,,0,04,4.54,,,,,,*50
$GPGSA,A,1,26,28,31,16,,,,,,,,,9.06,4.54,7.83*0D
$GPGSV,2,1,06,01,57,038,29,16,61,281,19,18,15,091,29,26,67,025,31*72
$GPGSV,2,2,06,28,36,110,26,31,64,088,22*74
$GPGLL,,,,,211533.00,V,N*4D
$GPRMC,211534.00,V,,,,,,,020524,,,N*7C
$GPVTG,,,,,,,,,N*30
$GPGGA,211534.00,,,,,0,04,4.54,,,,,,*57
$GPGSA,A,1,26,28,31,16,,,,,,,,,9.05,4.54,7.83*0E
$GPGSV,2,1,06,01,57,038,29,16,61,281,18,18,15,091,29,26,67,025,31*73
$GPGSV,2,2,06,28,36,110,27,31,64,088,22*75
$GPGLL,,,,,211534.00,V,N*4A
$GPRMC,211535.00,V,,,,,,,020524,,,N*7D
$GPVTG,,,,,,,,,N*30
$GPGGA,211535.00,,,,,0,04,4.54,,,,,,*56
$GPGSA,A,1,26,28,31,16,,,,,,,,,9.05,4.54,7.83*0E
$GPGSV,2,1,06,01,57,038,28,16,61,281,18,18,15,091,28,26,67,025,31*73
$GPGSV,2,2,06,28,36,110,26,31,64,088,21*77
$GPGLL,,,,,211535.00,V,N*4B
$GPRMC,211536.00,V,,,,,,,020524,,,N*7E
$GPVTG,,,,,,,,,N*30
$GPGGA,211536.00,,,,,0,04,4.54,,,,,,*55
$GPGSA,A,1,26,28,31,16,,,,,,,,,9.05,4.54,7.83*0E
$GPGSV,2,1,06,01,57,038,28,16,61,281,18,18,15,091,28,26,67,025,31*73
$GPGSV,2,2,06,28,36,110,26,31,64,088,21*77
$GPGLL,,,,,211536.00,V,N*48
$GPRMC,211537.00,V,,,,,,,020524,,,N*7F
$GPVTG,,,,,,,,,N*30
$GPGGA,211537.00,,,,,0,04,4.54,,,,,,*54
$GPGSA,A,1,26,28,31,16,,,,,,,,,9.04,4.54,7.82*0E
$GPGSV,2,1,06,01,57,038,28,16,61,281,18,18,15,091,27,26,67,025,31*7C
$GPGSV,2,2,06,28,36,110,26,31,64,088,19*7C
$GPGLL,,,,,211537.00,V,N*49
$GPRMC,211538.00,V,,,,,,,020524,,,N*70
$GPVTG,,,,,,,,,N*30
$GPGGA,211538.00,,,,,0,04,4.54,,,,,,*5B
$GPGSA,A,1,26,28,31,16,,,,,,,,,9.04,4.54,7.82*0E
$GPGSV,2,1,06,01,57,038,28,16,61,281,17,18,15,091,27,26,67,025,32*70
$GPGSV,2,2,06,28,36,110,26,31,64,088,20*76
$GPGLL,,,,,211538.00,V,N*46
$GPRMC,211539.00,V,,,,,,,020524,,,N*71
$GPVTG,,,,,,,,,N*30
$GPGGA,211539.00,,,,,0,04,4.54,,,,,,*5A
$GPGSA,A,1,26,28,31,16,,,,,,,,,9.04,4.54,7.82*0E
$GPGSV,2,1,06,01,57,038,29,16,61,281,17,18,15,091,28,26,67,025,32*7E
$GPGSV,2,2,06,28,36,110,27,31,64,088,19*7D
$GPGLL,,,,,211539.00,V,N*47
$GPRMC,211540.00,V,,,,,,,020524,,,N*7F
$GPVTG,,,,,,,,,N*30
$GPGGA,211540.00,,,,,0,03,3.00,,,,,,*55
$GPGSA,A,1,26,28,16,,,,,,,,,,3.17,3.00,1.00*0E
$GPGSV,2,1,06,01,57,038,29,16,61,281,16,18,15,091,27,26,67,025,32*70
$GPGSV,2,2,06,28,36,110,27,31,64,088,18*7C
$GPGLL,,,,,211540.00,V,N*49
$GPRMC,211541.00,V,,,,,,,020524,,,N*7E
$GPVTG,,,,,,,,,N*30
$GPGGA,211541.00,,,,,0,03,3.00,,,,,,*54
$GPGSA,A,1,26,28,16,,,,,,,,,,3.17,3.00,1.00*0E
$GPGSV,2,1,06,01,57,038,29,16,61,281,16,18,15,091,25,26,66,025,31*70
$GPGSV,2,2,06,28,36,110,27,31,64,088,17*73
$GPGLL,,,,,211541.00,V,N*48
$GPRMC,211542.00,V,,,,,,,020524,,,N*7D
$GPVTG,,,,,,,,,N*30
$GPGGA,211542.00,,,,,0,03,3.00,,,,,,*57
$GPGSA,A,1,26,28,16,,,,,,,,,,3.17,3.00,1.00*0E
$GPGSV,2,1,06,01,57,038,28,16,61,281,15,18,15,091,25,26,66,025,32*71
$GPGSV,2,2,06,28,36,111,27,31,64,088,16*73
$GPGLL,,,,,211542.00,V,N*4B
$GPRMC,211543.00,V,,,,,,,020524,,,N*7C
$GPVTG,,,,,,,,,N*30
$GPGGA,211543.00,,,,,0,03,3.00,,,,,,*56
$GPGSA,A,1,26,28,16,,,,,,,,,,3.17,3.00,1.00*0E
$GPGSV,2,1,06,01,57,038,28,16,61,281,14,18,15,091,23,26,66,025,32*76
$GPGSV,2,2,06,28,36,111,28,31,64,088,14*7E
$GPGLL,,,,,211543.00,V,N*4A
$GPRMC,211544.00,V,,,,,,,020524,,,N*7B
$GPVTG,,,,,,,,,N*30
$GPGGA,211544.00,,,,,0,03,3.00,,,,,,*51
$GPGSA,A,1,26,28,16,,,,,,,,,,3.17,3.00,1.00*0E
$GPGSV,2,1,06,01,57,038,28,16,61,281,14,18,15,091,25,26,66,025,31*73
$GPGSV,2,2,06,28,36,111,26,31,64,088,15*71
$GPGLL,,,,,211544.00,V,N*4D
$GPRMC,211545.00,V,,,,,,,020524,,,N*7A
$GPVTG,,,,,,,,,N*30
$GPGGA,211545.00,,,,,0,03,3.00,,,,,,*50
$GPGSA,A,1,26,28,16,,,,,,,,,,3.17,3.00,1.00*0E
$GPGSV,2,1,06,01,57,038,26,16,61,281,16,18,15,091,25,26,66,025,31*7F
$GPGSV,2,2,06,28,36,111,26,31,64,088,14*70
$GPGLL,,,,,211545.00,V,N*4C
$GPRMC,211546.00,A,3728.76030,N,12657.11424,E,2.300,50.40,020524,,,A*53
$GPVTG,50.40,T,,M,2.300,N,4.259,K,A*07
$GPGGA,211546.00,3728.76030,N,12657.11424,E,1,04,4.52,-48.5,M,18.4,M,,*4E
$GPGSA,A,3,26,28,31,16,,,,,,,,,9.02,4.52,7.80*0E
$GPGSV,2,1,06,01,57,038,27,16,61,281,14,18,15,091,26,26,66,025,31*7F
$GPGSV,2,2,06,28,36,111,27,31,64,088,13*76
$GPGLL,3728.76030,N,12657.11424,E,211546.00,A,A*65
$GPRMC,211547.00,A,3728.76034,N,12657.11448,E,2.124,50.66,020524,,,A*5C
$GPVTG,50.66,T,,M,2.124,N,3.933,K,A*07
$GPGGA,211547.00,3728.76034,N,12657.11448,E,1,04,4.52,-48.9,M,18.4,M,,*4D
$GPGSA,A,3,26,28,31,16,,,,,,,,,9.01,4.52,7.80*0D
$GPGSV,2,1,06,01,57,038,26,16,61,281,14,18,15,091,26,26,66,025,31*7E
$GPGSV,2,2,06,28,36,111,27,31,64,088,13*76
$GPGLL,3728.76034,N,12657.11448,E,211547.00,A,A*6A
$GPRMC,211548.00,A,3728.76031,N,12657.11477,E,1.985,,020524,,,A*71
$GPVTG,,T,,M,1.985,N,3.676,K,A*22
$GPGGA,211548.00,3728.76031,N,12657.11477,E,1,04,4.52,-49.8,M,18.4,M,,*4B
$GPGSA,A,3,26,28,31,16,,,,,,,,,9.01,4.52,7.79*0B
$GPGSV,2,1,06,01,57,038,26,16,61,281,14,18,15,091,26,26,66,025,30*7F
$GPGSV,2,2,06,28,36,111,27,31,64,088,10*75
$GPGLL,3728.76031,N,12657.11477,E,211548.00,A,A*6C
$GPRMC,211549.00,V,,,,,,,020524,,,N*76
$GPVTG,,,,,,,,,N*30
$GPGGA,211549.00,,,,,0,03,3.00,,,,,,*5C
$GPGSA,A,1,26,28,16,,,,,,,,,,3.17,3.00,1.00*0E
$GPGSV,2,1,07,01,57,038,26,16,61,281,15,18,15,091,26,20,,,28*47
$GPGSV,2,2,07,26,66,025,30,28,36,111,27,31,64,088,*45
$GPGLL,,,,,211549.00,V,N*40
$GPRMC,211550.00,V,,,,,,,020524,,,N*7E
$GPVTG,,,,,,,,,N*30
$GPGGA,211550.00,,,,,0,03,3.00,,,,,,*54
$GPGSA,A,1,26,28,16,,,,,,,,,,3.17,3.00,1.00*0E
$GPGSV,2,1,06,01,57,038,27,16,61,281,16,18,15,091,28,26,66,025,30*72
$GPGSV,2,2,06,28,36,111,27,31,64,088,17*72
$GPGLL,,,,,211550.00,V,N*48
$GPRMC,211551.00,V,,,,,,,020524,,,N*7F
$GPVTG,,,,,,,,,N*30
$GPGGA,211551.00,,,,,0,03,3.00,,,,,,*55
$GPGSA,A,1,26,28,16,,,,,,,,,,3.16,3.00,1.00*0F
$GPGSV,2,1,06,01,57,038,28,16,61,281,17,18,15,091,29,26,66,025,31*7C
$GPGSV,2,2,06,28,36,111,28,31,64,088,17*7D
$GPGLL,,,,,211551.00,V,N*49
$GPRMC,211552.00,V,,,,,,,020524,,,N*7C
$GPVTG,,,,,,,,,N*30
$GPGGA,211552.00,,,,,0,03,3.00,,,,,,*56
$GPGSA,A,1,26,28,16,,,,,,,,,,3.16,3.00,1.00*0F
$GPGSV,2,1,06,01,57,038,27,16,61,281,17,18,15,091,29,26,66,025,31*73
$GPGSV,2,2,06,28,36,111,27,31,64,088,16*73
$GPGLL,,,,,211552.00,V,N*4A
$GPRMC,211553.00,V,,,,,,,020524,,,N*7D
$GPVTG,,,,,,,,,N*30
$GPGGA,211553.00,,,,,0,03,3.00,,,,,,*57
$GPGSA,A,1,26,28,16,,,,,,,,,,3.16,3.00,1.00*0F
$GPGSV,2,1,06,01,57,038,27,16,61,281,17,18,15,091,29,26,66,025,31*73
$GPGSV,2,2,06,28,36,111,27,31,64,088,15*70
$GPGLL,,,,,211553.00,V,N*4B
$GPRMC,211554.00,A,3728.75871,N,12657.11657,E,0.481,,020524,,,A*7B
$GPVTG,,T,,M,0.481,N,0.891,K,A*2E
$GPGGA,211554.00,3728.75871,N,12657.11657,E,1,04,4.51,-35.6,M,18.4,M,,*4F
$GPGSA,A,3,26,28,31,16,,,,,,,,,8.99,4.51,7.78*09
$GPGSV,2,1,06,01,57,038,28,16,61,281,17,18,15,091,29,26,66,025,31*7C
$GPGSV,2,2,06,28,36,111,27,31,64,088,16*73
$GPGLL,3728.75871,N,12657.11657,E,211554.00,A,A*6E
$GPRMC,211555.00,A,3728.75908,N,12657.11728,E,0.961,,020524,,,A*7F
$GPVTG,,T,,M,0.961,N,1.779,K,A*25
$GPGGA,211555.00,3728.75908,N,12657.11728,E,1,04,4.51,-35.4,M,18.4,M,,*4A
$GPGSA,A,3,26,28,31,16,,,,,,,,,8.99,4.51,7.78*09
$GPGSV,2,1,06,01,57,038,27,16,61,281,17,18,15,091,29,26,66,025,30*72
$GPGSV,2,2,06,28,36,111,26,31,64,088,14*70
$GPGLL,3728.75908,N,12657.11728,E,211555.00,A,A*69
$GPRMC,211556.00,V,,,,,,,020524,,,N*78
$GPVTG,,,,,,,,,N*30
$GPGGA,211556.00,,,,,0,03,3.00,,,,,,*52
$GPGSA,A,1,26,28,16,,,,,,,,,,3.16,3.00,1.00*0F
$GPGSV,2,1,06,01,57,039,28,16,61,281,17,18,15,091,29,26,66,025,31*7D
$GPGSV,2,2,06,28,36,111,27,31,64,088,12*77
$GPGLL,,,,,211556.00,V,N*4E
$GPRMC,211557.00,V,,,,,,,020524,,,N*79
$GPVTG,,,,,,,,,N*30
$GPGGA,211557.00,,,,,0,03,3.00,,,,,,*53
$GPGSA,A,1,26,28,16,,,,,,,,,,3.16,3.00,1.00*0F
$GPGSV,2,1,06,01,57,039,28,16,61,281,17,18,15,091,29,26,66,025,31*7D
$GPGSV,2,2,06,28,36,111,27,31,64,088,09*7D
$GPGLL,,,,,211557.00,V,N*4F
$GPRMC,211558.00,V,,,,,,,020524,,,N*76
$GPVTG,,,,,,,,,N*30
$GPGGA,211558.00,,,,,0,03,3.00,,,,,,*5C
$GPGSA,A,1,26,28,16,,,,,,,,,,3.16,3.00,1.00*0F
$GPGSV,2,1,06,01,57,039,28,16,61,281,17,18,15,091,30,26,66,025,31*75
$GPGSV,2,2,06,28,36,111,27,31,64,088,08*7C
$GPGLL,,,,,211558.00,V,N*40
$GPRMC,211559.00,V,,,,,,,020524,,,N*77
$GPVTG,,,,,,,,,N*30
$GPGGA,211559.00,,,,,0,03,3.00,,,,,,*5D
$GPGSA,A,1,26,28,16,,,,,,,,,,3.16,3.00,1.00*0F
$GPGSV,2,1,06,01,57,039,28,16,61,281,15,18,15,091,30,26,66,025,31*77
$GPGSV,2,2,06,28,36,111,26,31,64,088,08*7D
$GPGLL,,,,,211559.00,V,N*41
$GPRMC,211600.00,V,,,,,,,020524,,,N*78
$GPVTG,,,,,,,,,N*30
$GPGGA,211600.00,,,,,0,03,3.00,,,,,,*52
$GPGSA,A,1,26,28,16,,,,,,,,,,3.16,3.00,1.00*0F
$GPGSV,2,1,06,01,57,039,29,16,61,281,13,18,15,091,30,26,66,025,31*70
$GPGSV,2,2,06,28,36,111,27,31,64,088,08*7C
$GPGLL,,,,,211600.00,V,N*4E
$GPRMC,211601.00,V,,,,,,,020524,,,N*79
$GPVTG,,,,,,,,,N*30
$GPGGA,211601.00,,,,,0,03,3.00,,,,,,*53
$GPGSA,A,1,26,28,16,,,,,,,,,,3.16,3.00,1.00*0F
$GPGSV,2,1,06,01,57,039,29,16,61,281,14,18,15,091,30,26,66,025,31*77
$GPGSV,2,2,06,28,36,111,26,31,64,088,*75
$GPGLL,,,,,211601.00,V,N*4F
$GPRMC,211602.00,V,,,,,,,020524,,,N*7A
$GPVTG,,,,,,,,,N*30
$GPGGA,211602.00,,,,,0,03,3.00,,,,,,*50
$GPGSA,A,1,26,28,16,,,,,,,,,,3.16,3.00,1.00*0F
$GPGSV,2,1,06,01,57,039,29,16,61,281,14,18,15,091,30,26,66,025,31*77
$GPGSV,2,2,06,28,36,111,26,31,64,088,*75
$GPGLL,,,,,211602.00,V,N*4C
$GPRMC,211603.00,V,,,,,,,020524,,,N*7B
$GPVTG,,,,,,,,,N*30
$GPGGA,211603.00,,,,,0,03,3.00,,,,,,*51
$GPGSA,A,1,26,28,16,,,,,,,,,,3.16,3.00,1.00*0F
$GPGSV,2,1,06,01,57,039,29,16,61,281,14,18,15,091,29,26,66,025,31*7F
$GPGSV,2,2,06,28,36,111,26,31,64,088,*75
$GPGLL,,,,,211603.00,V,N*4D
$GPRMC,211604.00,V,,,,,,,020524,,,N*7C
$GPVTG,,,,,,,,,N*30
$GPGGA,211604.00,,,,,0,00,99.99,,,,,,*66
$GPGSA,A,1,,,,,,,,,,,,,99.99,99.99,99.99*30
$GPGSV,2,1,06,01,57,039,29,16,61,281,12,18,15,091,29,26,66,025,32*7A
$GPGSV,2,2,06,28,36,111,27,31,64,088,*74
$GPGLL,,,,,211604.00,V,N*4A
$GPRMC,211605.00,V,,,,,,,020524,,,N*7D
$GPVTG,,,,,,,,,N*30
$GPGGA,211605.00,,,,,0,00,99.99,,,,,,*67
$GPGSA,A,1,,,,,,,,,,,,,99.99,99.99,99.99*30
$GPGSV,2,1,06,01,57,039,29,16,61,281,09,18,15,091,29,26,66,025,32*70
$GPGSV,2,2,06,28,36,111,27,31,64,088,*74
$GPGLL,,,,,211605.00,V,N*4B
$GPRMC,211606.00,V,,,,,,,020524,,,N*7E
$GPVTG,,,,,,,,,N*30
$GPGGA,211606.00,,,,,0,00,99.99,,,,,,*64
$GPGSA,A,1,,,,,,,,,,,,,99.99,99.99,99.99*30
$GPGSV,2,1,06,01,57,039,29,16,61,281,09,18,15,091,29,26,66,025,32*70
$GPGSV,2,2,06,28,36,111,27,31,64,088,*74
$GPGLL,,,,,211606.00,V,N*48
$GPRMC,211607.00,V,,,,,,,020524,,,N*7F
$GPVTG,,,,,,,,,N*30
$GPGGA,211607.00,,,,,0,00,99.99,,,,,,*65
$GPGSA,A,1,,,,,,,,,,,,,99.99,99.99,99.99*30
$GPGSV,2,1,06,01,57,039,29,16,61,281,10,18,15,091,28,26,66,025,31*7A
$GPGSV,2,2,06,28,36,111,26,31,64,088,*75
$GPGLL,,,,,211607.00,V,N*49
$GPRMC,211608.00,V,,,,,,,020524,,,N*70
$GPVTG,,,,,,,,,N*30
$GPGGA,211608.00,,,,,0,00,99.99,,,,,,*6A
$GPGSA,A,1,,,,,,,,,,,,,99.99,99.99,99.99*30
$GPGSV,2,1,06,01,57,039,29,16,61,281,12,18,15,091,28,26,66,025,31*78
$GPGSV,2,2,06,28,36,111,26,31,64,088,*75
$GPGLL,,,,,211608.00,V,N*46
$GPRMC,211609.00,V,,,,,,,020524,,,N*71
$GPVTG,,,,,,,,,N*30
$GPGGA,211609.00,,,,,0,03,3.00,,,,,,*5B
$GPGSA,A,1,26,28,16,,,,,,,,,,3.16,3.00,1.00*0F
$GPGSV,2,1,06,01,57,039,29,16,61,281,13,18,15,091,28,26,66,025,32*7A
$GPGSV,2,2,06,28,36,111,27,31,64,088,*74
$GPGLL,,,,,211609.00,V,N*47
$GPRMC,211610.00,V,,,,,,,020524,,,N*79
$GPVTG,,,,,,,,,N*30
$GPGGA,211610.00,,,,,0,03,3.00,,,,,,*53
$GPGSA,A,1,26,28,16,,,,,,,,,,3.16,3.00,1.00*0F
$GPGSV,2,1,06,01,57,039,29,16,61,281,15,18,15,091,29,26,66,025,33*7C
$GPGSV,2,2,06,28,36,111,27,31,64,088,*74
$GPGLL,,,,,211610.00,V,N*4F
$GPRMC,211611.00,V,,,,,,,020524,,,N*78
$GPVTG,,,,,,,,,N*30
$GPGGA,211611.00,,,,,0,03,3.00,,,,,,*52
$GPGSA,A,1,26,28,16,,,,,,,,,,3.16,3.00,1.00*0F
$GPGSV,2,1,06,01,57,039,29,16,61,281,16,18,15,091,29,26,66,025,32*7E
$GPGSV,2,2,06,28,36,111,27,31,64,088,*74
$GPGLL,,,,,211611.00,V,N*4E
$GPRMC,211612.00,V,,,,,,,020524,,,N*7B
$GPVTG,,,,,,,,,N*30
$GPGGA,211612.00,,,,,0,03,3.00,,,,,,*51
$GPGSA,A,1,26,28,16,,,,,,,,,,3.16,3.00,1.00*0F
$GPGSV,2,1,06,01,57,039,29,16,61,281,18,18,15,091,29,26,66,025,32*70
$GPGSV,2,2,06,28,36,111,27,31,64,088,03*77
$GPGLL,,,,,211612.00,V,N*4D
$GPRMC,211613.00,V,,,,,,,020524,,,N*7A
$GPVTG,,,,,,,,,N*30
$GPGGA,211613.00,,,,,0,03,3.00,,,,,,*50
$GPGSA,A,1,26,28,16,,,,,,,,,,3.16,3.00,1.00*0F
$GPGSV,2,1,06,01,57,039,29,16,61,281,19,18,15,091,28,26,66,025,33*71
$GPGSV,2,2,06,28,36,111,27,31,64,088,07*73
$GPGLL,,,,,211613.00,V,N*4C
$GPRMC,211614.00,V,,,,,,,020524,,,N*7D
$GPVTG,,,,,,,,,N*30
$GPGGA,211614.00,,,,,0,03,3.00,,,,,,*57
$GPGSA,A,1,26,28,16,,,,,,,,,,3.16,3.00,1.00*0F
$GPGSV,2,1,06,01,57,039,27,16,61,281,20,18,15,091,28,26,66,025,32*74
$GPGSV,2,2,06,28,36,111,25,31,64,088,14*73
$GPGLL,,,,,211614.00,V,N*4B
$GPRMC,211615.00,V,,,,,,,020524,,,N*7C
$GPVTG,,,,,,,,,N*30
$GPGGA,211615.00,,,,,0,03,3.00,,,,,,*56
$GPGSA,A,1,26,28,16,,,,,,,,,,3.16,3.00,1.00*0F
$GPGSV,2,1,06,01,57,039,27,16,61,281,21,18,15,091,28,26,66,025,32*75
$GPGSV,2,2,06,28,36,111,25,31,64,088,16*71
$GPGLL,,,,,211615.00,V,N*4A
$GPRMC,211616.00,A,3728.75013,N,12657.11515,E,0.671,,020524,,,A*7A
$GPVTG,,T,,M,0.671,N,1.243,K,A*27
$GPGGA,211616.00,3728.75013,N,12657.11515,E,1,04,4.48,-11.4,M,18.4,M,,*4F
$GPGSA,A,3,26,28,31,16,,,,,,,,,8.93,4.48,7.72*01
$GPGSV,2,1,06,01,57,039,26,16,61,281,22,18,15,091,27,26,66,025,31*7B
$GPGSV,2,2,06,28,36,111,25,31,64,088,16*71
$GPGLL,3728.75013,N,12657.11515,E,211616.00,A,A*62
$GPRMC,211617.00,A,3728.74973,N,12657.11567,E,0.538,,020524,,,A*7E
$GPVTG,,T,,M,0.538,N,0.996,K,A*2B
$GPGGA,211617.00,3728.74973,N,12657.11567,E,1,04,4.48,-9.6,M,18.4,M,,*7E
$GPGSA,A,3,26,28,31,16,,,,,,,,,8.92,4.48,7.72*00
$GPGSV,2,1,06,01,57,039,26,16,61,281,22,18,15,091,28,26,66,025,31*74
$GPGSV,2,2,06,28,36,111,25,31,64,088,15*72
$GPGLL,3728.74973,N,12657.11567,E,211617.00,A,A*68
$GPRMC,211618.00,A,3728.74845,N,12657.11512,E,0.770,,020524,,,A*79
$GPVTG,,T,,M,0.770,N,1.426,K,A*22
$GPGGA,211618.00,3728.74845,N,12657.11512,E,1,04,4.48,-7.7,M,18.4,M,,*78
$GPGSA,A,3,26,28,31,16,,,,,,,,,8.92,4.48,7.72*00
$GPGSV,2,1,06,01,57,039,26,16,61,281,23,18,15,091,29,26,66,025,32*77
$GPGSV,2,2,06,28,36,111,25,31,64,088,16*71
$GPGLL,3728.74845,N,12657.11512,E,211618.00,A,A*61
$GPRMC,211619.00,A,3728.74335,N,12657.11358,E,1.158,,020524,,,A*71
$GPVTG,,T,,M,1.158,N,2.144,K,A*2D
$GPGGA,211619.00,3728.74335,N,12657.11358,E,1,05,2.91,6.8,M,18.4,M,,*5D
$GPGSA,A,3,26,28,31,16,18,,,,,,,,4.03,2.91,2.78*00
$GPGSV,2,1,06,01,57,039,26,16,61,281,22,18,15,090,29,26,66,025,31*74
$GPGSV,2,2,06,28,36,111,25,31,64,088,16*71
$GPGLL,3728.74335,N,12657.11358,E,211619.00,A,A*64
$GPRMC,211620.00,A,3728.74099,N,12657.11316,E,0.596,,020524,,,A*73
$GPVTG,,T,,M,0.596,N,1.105,K,A*2C
$GPGGA,211620.00,3728.74099,N,12657.11316,E,1,05,2.91,15.1,M,18.4,M,,*63
$GPGSA,A,3,26,28,31,16,18,,,,,,,,4.03,2.91,2.78*00
$GPGSV,2,1,06,01,57,039,26,16,61,281,22,18,15,090,30,26,66,025,32*7F
$GPGSV,2,2,06,28,36,111,26,31,64,088,14*70
$GPGLL,3728.74099,N,12657.11316,E,211620.00,A,A*61
$GPRMC,211621.00,A,3728.73838,N,12657.11253,E,1.220,,020524,,,A*7D
$GPVTG,,T,,M,1.220,N,2.260,K,A*24
$GPGGA,211621.00,3728.73838,N,12657.11253,E,1,05,2.91,20.8,M,18.4,M,,*69
$GPGSA,A,3,26,28,31,16,18,,,,,,,,4.03,2.91,2.78*00
$GPGSV,2,1,06,01,57,039,26,16,61,281,21,18,15,090,31,26,66,025,32*7D
$GPGSV,2,2,06,28,36,111,26,31,64,088,16*72
$GPGLL,3728.73838,N,12657.11253,E,211621.00,A,A*64
$GPRMC,211622.00,A,3728.73701,N,12657.11291,E,1.502,,020524,,,A*72
$GPVTG,,T,,M,1.502,N,2.781,K,A*29
$GPGGA,211622.00,3728.73701,N,12657.11291,E,1,05,2.91,26.2,M,18.4,M,,*6D
$GPGSA,A,3,26,28,31,16,18,,,,,,,,4.03,2.91,2.78*00
$GPGSV,2,1,06,01,57,039,26,16,61,281,21,18,15,090,31,26,66,025,31*7E
$GPGSV,2,2,06,28,36,111,26,31,64,088,18*7C
$GPGLL,3728.73701,N,12657.11291,E,211622.00,A,A*6C
$GPRMC,211623.00,A,3728.73600,N,12657.11399,E,3.569,109.99,020524,,,A*63
$GPVTG,109.99,T,,M,3.569,N,6.610,K,A*3D
$GPGGA,211623.00,3728.73600,N,12657.11399,E,1,05,2.91,29.2,M,18.4,M,,*6A
$GPGSA,A,3,26,28,31,16,18,,,,,,,,4.03,2.91,2.78*00
$GPGSV,2,1,06,01,57,039,24,16,61,282,21,18,15,090,31,26,66,025,32*7C
$GPGSV,2,2,06,28,36,111,25,31,64,088,19*7E
$GPGLL,3728.73600,N,12657.11399,E,211623.00,A,A*64
$GPRMC,211624.00,A,3728.73491,N,12657.11571,E,5.604,102.75,020524,,,A*69
$GPVTG,102.75,T,,M,5.604,N,10.379,K,A*07
$GPGGA,211624.00,3728.73491,N,12657.11571,E,1,05,2.91,31.7,M,18.4,M,,*6B
$GPGSA,A,3,26,28,31,16,18,,,,,,,,4.03,2.91,2.78*00
$GPGSV,2,1,06,01,57,039,24,16,61,282,20,18,15,090,31,26,66,025,32*7D
$GPGSV,2,2,06,28,36,111,25,31,64,088,19*7E
$GPGLL,3728.73491,N,12657.11571,E,211624.00,A,A*69
$GPRMC,211625.00,A,3728.73430,N,12657.11789,E,7.369,100.79,020524,,,A*64
$GPVTG,100.79,T,,M,7.369,N,13.648,K,A*01
$GPGGA,211625.00,3728.73430,N,12657.11789,E,1,05,2.91,32.1,M,18.4,M,,*61
$GPGSA,A,3,26,28,31,16,18,,,,,,,,4.03,2.91,2.78*00
$GPGSV,2,1,06,01,57,039,23,16,61,282,18,18,15,090,30,26,66,025,30*72
$GPGSV,2,2,06,28,36,111,24,31,64,088,19*7F
$GPGLL,3728.73430,N,12657.11789,E,211625.00,A,A*66
$GPRMC,211626.00,A,3728.73348,N,12657.12065,E,9.174,98.53,020524,,,A*51
$GPVTG,98.53,T,,M,9.174,N,16.991,K,A*37
$GPGGA,211626.00,3728.73348,N,12657.12065,E,1,05,2.91,33.2,M,18.4,M,,*6E
$GPGSA,A,3,26,28,31,16,18,,,,,,,,4.03,2.91,2.78*00
$GPGSV,2,1,06,01,57,039,23,16,61,282,16,18,15,090,32,26,66,025,30*7E
$GPGSV,2,2,06,28,36,111,23,31,64,088,18*79
$GPGLL,3728.73348,N,12657.12065,E,211626.00,A,A*6B
$GPRMC,211627.00,A,3728.73306,N,12657.12411,E,10.819,96.92,020524,,,A*64
$GPVTG,96.92,T,,M,10.819,N,20.038,K,A*01
$GPGGA,211627.00,3728.73306,N,12657.12411,E,1,05,2.91,33.3,M,18.4,M,,*63
$GPGSA,A,3,26,28,31,16,18,,,,,,,,4.03,2.91,2.79*01
$GPGSV,2,1,06,01,57,039,23,16,61,282,16,18,15,090,28,26,66,025,29*7D
$GPGSV,2,2,06,28,36,111,23,31,64,088,17*76
$GPGLL,3728.73306,N,12657.12411,E,211627.00,A,A*67
$GPRMC,211628.00,A,3728.73292,N,12657.12795,E,11.290,94.44,020524,,,A*6B
$GPVTG,94.44,T,,M,11.290,N,20.909,K,A*09
$GPGGA,211628.00,3728.73292,N,12657.12795,E,1,05,2.91,33.3,M,18.4,M,,*6F
$GPGSA,A,3,26,28,31,16,18,,,,,,,,4.03,2.91,2.79*01
$GPGSV,2,1,06,01,57,039,23,16,61,282,15,18,15,090,29,26,66,025,29*7F
$GPGSV,2,2,06,28,36,111,23,31,64,088,19*78
$GPGLL,3728.73292,N,12657.12795,E,211628.00,A,A*6B
$GPRMC,211629.00,A,3728.73322,N,12657.13183,E,11.618,88.75,020524,,,A*6B
$GPVTG,88.75,T,,M,11.618,N,21.517,K,A*00
$GPGGA,211629.00,3728.73322,N,12657.13183,E,1,05,2.91,32.9,M,18.4,M,,*6F
$GPGSA,A,3,26,28,31,16,18,,,,,,,,4.03,2.91,2.79*01
$GPGSV,2,1,06,01,57,039,21,16,61,282,21,18,15,090,18,26,66,025,22*73
$GPGSV,2,2,06,28,36,111,23,31,64,088,20*72
$GPGLL,3728.73322,N,12657.13183,E,211629.00,A,A*60
$GPRMC,211630.00,A,3728.73369,N,12657.13593,E,12.460,84.97,020524,,,A*67
$GPVTG,84.97,T,,M,12.460,N,23.077,K,A*0F
$GPGGA,211630.00,3728.73369,N,12657.13593,E,1,05,2.91,32.6,M,18.4,M,,*62
$GPGSA,A,3,26,28,31,16,18,,,,,,,,4.03,2.91,2.79*01
$GPGSV,2,1,06,01,57,039,24,16,61,282,24,18,15,090,16,26,66,026,21*7D
$GPGSV,2,2,06,28,36,111,23,31,64,088,19*78
$GPGLL,3728.73369,N,12657.13593,E,211630.00,A,A*62
$GPRMC,211631.00,A,3728.73481,N,12657.13993,E,11.292,81.13,020524,,,A*6A
$GPVTG,81.13,T,,M,11.292,N,20.913,K,A*06
$GPGGA,211631.00,3728.73481,N,12657.13993,E,1,05,2.91,32.4,M,18.4,M,,*6C
$GPGSA,A,3,26,28,31,16,18,,,,,,,,4.03,2.91,2.79*01
$GPGSV,2,1,06,01,57,039,25,16,61,282,21,18,15,090,13,26,66,026,19*77
$GPGSV,2,2,06,28,36,111,21,31,64,088,17*74
$GPGLL,3728.73481,N,12657.13993,E,211631.00,A,A*6E
$GPRMC,211632.00,A,3728.73588,N,12657.14275,E,8.794,73.25,020524,,,A*56
$GPVTG,73.25,T,,M,8.794,N,16.286,K,A*37
$GPGGA,211632.00,3728.73588,N,12657.14275,E,1,05,2.91,33.4,M,18.4,M,,*62
$GPGSA,A,3,26,28,31,16,18,,,,,,,,4.03,2.91,2.79*01
$GPGSV,2,1,06,01,57,039,26,16,61,282,23,18,15,090,13,26,66,026,19*76
$GPGSV,2,2,06,28,36,111,22,31,64,089,17*76
$GPGLL,3728.73588,N,12657.14275,E,211632.00,A,A*61
$GPRMC,211633.00,A,3728.73703,N,12657.14384,E,5.907,48.53,020524,,,A*59
$GPVTG,48.53,T,,M,5.907,N,10.939,K,A*3E
$GPGGA,211633.00,3728.73703,N,12657.14384,E,1,05,2.91,34.1,M,18.4,M,,*6F
$GPGSA,A,3,26,28,31,16,18,,,,,,,,4.03,2.91,2.79*01
$GPGSV,2,1,06,01,57,039,32,16,61,282,23,18,15,090,12,26,66,026,17*7C
$GPGSV,2,2,06,28,36,111,23,31,64,089,26*75
$GPGLL,3728.73703,N,12657.14384,E,211633.00,A,A*6E
$GPRMC,211634.00,A,3728.74062,N,12657.14479,E,10.244,25.94,020524,,,A*64
$GPVTG,25.94,T,,M,10.244,N,18.971,K,A*02
$GPGGA,211634.00,3728.74062,N,12657.14479,E,1,05,2.91,33.2,M,18.4,M,,*6E
$GPGSA,A,3,26,28,31,16,18,,,,,,,,4.03,2.91,2.79*01
$GPGSV,2,1,06,01,57,039,27,16,61,282,34,18,15,090,12,26,66,026,20*7A
$GPGSV,2,2,06,28,36,111,29,31,64,089,26*7F
$GPGLL,3728.74062,N,12657.14479,E,211634.00,A,A*6B
$GPRMC,211635.00,A,3728.74319,N,12657.14506,E,11.013,20.04,020524,,,A*6E
$GPVTG,20.04,T,,M,11.013,N,20.396,K,A*07
$GPGGA,211635.00,3728.74319,N,12657.14506,E,1,05,2.91,32.8,M,18.4,M,,*62
$GPGSA,A,3,26,28,31,16,18,,,,,,,,4.03,2.91,2.79*01
$GPGSV,2,1,06,01,57,039,26,16,61,282,34,18,15,090,14,26,66,026,22*7F
$GPGSV,2,2,06,28,36,111,20,31,64,089,25*75
$GPGLL,3728.74319,N,12657.14506,E,211635.00,A,A*6C
$GPRMC,211636.00,A,3728.74753,N,12657.14654,E,13.408,15.44,020524,,,A*6D
$GPVTG,15.44,T,,M,13.408,N,24.832,K,A*08
$GPGGA,211636.00,3728.74753,N,12657.14654,E,1,05,2.90,33.6,M,18.4,M,,*61
$GPGSA,A,3,26,28,31,16,18,,,,,,,,4.03,2.90,2.79*00
$GPGSV,2,1,06,01,57,039,23,16,61,282,35,18,15,090,16,26,66,026,26*7D
$GPGSV,2,2,06,28,36,111,19,31,64,089,23*79
$GPGLL,3728.74753,N,12657.14654,E,211636.00,A,A*61
$GPRMC,211637.00,A,3728.75166,N,12657.14764,E,14.935,13.45,020524,,,A*6C
$GPVTG,13.45,T,,M,14.935,N,27.660,K,A*01
$GPGGA,211637.00,3728.75166,N,12657.14764,E,1,05,2.90,34.8,M,18.4,M,,*6A
$GPGSA,A,3,26,28,31,16,18,,,,,,,,4.03,2.90,2.79*00
$GPGSV,2,1,06,01,57,039,20,16,61,282,31,18,15,090,17,26,66,026,26*7B
$GPGSV,2,2,06,28,36,111,18,31,64,089,21*7A
$GPGLL,3728.75166,N,12657.14764,E,211637.00,A,A*63
$GPRMC,211638.00,A,3728.75357,N,12657.14852,E,13.202,13.93,020524,,,A*6A
$GPVTG,13.93,T,,M,13.202,N,24.450,K,A*00
$GPGGA,211638.00,3728.75357,N,12657.14852,E,1,05,2.90,37.4,M,18.4,M,,*60
$GPGSA,A,3,26,28,31,16,18,,,,,,,,4.03,2.90,2.79*00
$GPGSV,2,1,06,01,57,039,14,16,61,282,31,18,15,090,17,26,66,026,26*7C
$GPGSV,2,2,06,28,36,111,18,31,64,089,19*71
$GPGLL,3728.75357,N,12657.14852,E,211638.00,A,A*66
$GPRMC,211639.00,A,3728.75771,N,12657.14952,E,15.052,13.02,020524,,,A*63
$GPVTG,13.02,T,,M,15.052,N,27.876,K,A*02
$GPGGA,211639.00,3728.75771,N,12657.14952,E,1,05,2.90,38.6,M,18.4,M,,*6D
$GPGSA,A,3,26,28,31,16,18,,,,,,,,4.03,2.90,2.79*00
$GPGSV,2,1,06,01,57,039,10,16,61,282,31,18,15,090,14,26,66,026,27*7A
$GPGSV,2,2,06,28,36,111,20,31,64,089,17*74
$GPGLL,3728.75771,N,12657.14952,E,211639.00,A,A*66
$GPRMC,211640.00,A,3728.76211,N,12657.15033,E,15.514,12.17,020524,,,A*60
$GPVTG,12.17,T,,M,15.514,N,28.733,K,A*01
$GPGGA,211640.00,3728.76211,N,12657.15033,E,1,05,2.90,39.5,M,18.4,M,,*6E
$GPGSA,A,3,26,28,31,16,18,,,,,,,,4.03,2.90,2.79*00
$GPGSV,2,1,06,01,57,039,11,16,61,282,32,18,15,090,10,26,66,026,28*73
$GPGSV,2,2,06,28,36,111,19,31,64,089,15*7C
$GPGLL,3728.76211,N,12657.15033,E,211640.00,A,A*67
$GPRMC,211641.00,A,3728.76749,N,12657.15088,E,16.372,9.48,020524,,,A*5C
$GPVTG,9.48,T,,M,16.372,N,30.322,K,A*39
$GPGGA,211641.00,3728.76749,N,12657.15088,E,1,04,4.45,39.3,M,18.4,M,,*6E
$GPGSA,A,3,26,28,31,16,,,,,,,,,8.85,4.45,7.66*0E
$GPGSV,2,1,06,01,57,039,12,16,61,282,31,18,15,090,09,26,66,026,27*74
$GPGSV,2,2,06,28,36,111,17,31,64,089,15*72
$GPGLL,3728.76749,N,12657.15088,E,211641.00,A,A*6E
$GPRMC,211642.00,A,3728.77268,N,12657.15132,E,16.861,8.60,020524,,,A*5A
$GPVTG,8.60,T,,M,16.861,N,31.226,K,A*3F
$GPGGA,211642.00,3728.77268,N,12657.15132,E,1,04,4.44,38.6,M,18.4,M,,*6F
$GPGSA,A,3,26,28,31,16,,,,,,,,,8.85,4.44,7.65*0C
$GPGSV,2,1,06,01,57,039,12,16,61,282,30,18,15,090,08,26,66,026,27*74
$GPGSV,2,2,06,28,36,111,15,31,64,089,14*71
$GPGLL,3728.77268,N,12657.15132,E,211642.00,A,A*6A
$GPRMC,211643.00,A,3728.77833,N,12657.15171,E,17.363,8.20,020524,,,A*54
$GPVTG,8.20,T,,M,17.363,N,32.157,K,A*35
$GPGGA,211643.00,3728.77833,N,12657.15171,E,1,03,4.11,36.0,M,18.4,M,,*62
$GPGSA,A,2,26,31,16,,,,,,,,,,4.23,4.11,1.00*02
$GPGSV,2,1,06,01,57,039,12,16,61,282,30,18,15,090,07,26,66,026,27*7B
$GPGSV,2,2,06,28,36,111,09,31,64,089,12*7A
$GPGLL,3728.77833,N,12657.15171,E,211643.00,A,A*68
$GPRMC,211644.00,A,3728.78363,N,12657.15235,E,17.522,7.64,020524,,,A*5D
$GPVTG,7.64,T,,M,17.522,N,32.450,K,A*3B
$GPGGA,211644.00,3728.78363,N,12657.15235,E,1,03,4.11,35.4,M,18.4,M,,*60
$GPGSA,A,2,26,31,16,,,,,,,,,,4.23,4.11,1.00*02
$GPGSV,2,1,06,01,57,039,14,16,61,282,35,18,15,090,08,26,66,026,28*78
$GPGSV,2,2,06,28,36,111,09,31,64,089,14*7C
$GPGLL,3728.78363,N,12657.15235,E,211644.00,A,A*6D
$GPRMC,211645.00,A,3728.78839,N,12657.15302,E,17.409,8.29,020524,,,A*53
$GPVTG,8.29,T,,M,17.409,N,32.241,K,A*33
$GPGGA,211645.00,3728.78839,N,12657.15302,E,1,03,4.11,35.0,M,18.4,M,,*64
$GPGSA,A,2,26,31,16,,,,,,,,,,4.23,4.11,1.00*02
$GPGSV,2,1,06,01,57,039,14,16,61,282,35,18,15,090,08,26,66,026,28*78
$GPGSV,2,2,06,28,36,111,09,31,64,089,16*7E
$GPGLL,3728.78839,N,12657.15302,E,211645.00,A,A*6D
$GPRMC,211646.00,A,3728.79352,N,12657.15352,E,17.530,8.17,020524,,,A*54
$GPVTG,8.17,T,,M,17.530,N,32.466,K,A*36
$GPGGA,211646.00,3728.79352,N,12657.15352,E,1,03,4.11,34.6,M,18.4,M,,*62
$GPGSA,A,2,26,31,16,,,,,,,,,,4.23,4.11,1.00*02
$GPGSV,2,1,06,01,57,039,18,16,61,282,34,18,15,090,08,26,66,026,28*75
$GPGSV,2,2,06,28,36,111,08,31,64,089,16*7F
$GPGLL,3728.79352,N,12657.15352,E,211646.00,A,A*6C
$GPRMC,211647.00,A,3728.79825,N,12657.15361,E,17.039,6.72,020524,,,A*5F
$GPVTG,6.72,T,,M,17.039,N,31.556,K,A*36
$GPGGA,211647.00,3728.79825,N,12657.15361,E,1,03,4.11,34.2,M,18.4,M,,*6C
$GPGSA,A,2,26,31,16,,,,,,,,,,4.23,4.11,1.00*02
$GPGSV,2,1,06,01,57,039,19,16,61,282,34,18,15,090,07,26,66,026,27*74
$GPGSV,2,2,06,28,36,111,08,31,64,089,15*7C
$GPGLL,3728.79825,N,12657.15361,E,211647.00,A,A*66
$GPRMC,211648.00,A,3728.80330,N,12657.15357,E,16.794,4.75,020524,,,A*58
$GPVTG,4.75,T,,M,16.794,N,31.103,K,A*36
$GPGGA,211648.00,3728.80330,N,12657.15357,E,1,03,4.11,33.9,M,18.4,M,,*63
$GPGSA,A,2,26,31,16,,,,,,,,,,4.23,4.11,1.00*02
$GPGSV,2,1,06,01,57,039,19,16,62,282,34,18,15,090,07,26,66,026,27*77
$GPGSV,2,2,06,28,36,111,08,31,64,089,12*7B
$GPGLL,3728.80330,N,12657.15357,E,211648.00,A,A*65
$GPRMC,211649.00,A,3728.80825,N,12657.15349,E,16.542,2.86,020524,,,A*5A
$GPVTG,2.86,T,,M,16.542,N,30.635,K,A*36
$GPGGA,211649.00,3728.80825,N,12657.15349,E,1,03,4.11,33.7,M,18.4,M,,*6C
$GPGSA,A,2,26,31,16,,,,,,,,,,4.23,4.11,1.00*02
$GPGSV,2,1,06,01,57,039,19,16,62,282,34,18,15,090,07,26,66,026,26*76
$GPGSV,2,2,06,28,36,111,08,31,64,089,14*7D
$GPGLL,3728.80825,N,12657.15349,E,211649.00,A,A*64
$GPRMC,211650.00,A,3728.81282,N,12657.15295,E,16.160,0.77,020524,,,A*5C
$GPVTG,0.77,T,,M,16.160,N,29.928,K,A*35
$GPGGA,211650.00,3728.81282,N,12657.15295,E,1,05,2.90,34.3,M,18.4,M,,*68
$GPGSA,A,3,26,28,31,16,18,,,,,,,,4.02,2.90,2.79*01
$GPGSV,2,1,06,01,57,039,18,16,62,282,29,18,15,090,07,26,66,026,26*7B
$GPGSV,2,2,06,28,36,111,10,31,64,089,17*77
$GPGLL,3728.81282,N,12657.15295,E,211650.00,A,A*6A
$GPRMC,211651.00,A,3728.81663,N,12657.15309,E,15.911,1.37,020524,,,A*5A
$GPVTG,1.37,T,,M,15.911,N,29.468,K,A*34
$GPGGA,211651.00,3728.81663,N,12657.15309,E,1,05,2.90,34.6,M,18.4,M,,*63
$GPGSA,A,3,26,28,31,16,18,,,,,,,,4.02,2.90,2.79*01
$GPGSV,2,1,06,01,57,039,17,16,62,282,30,18,15,090,07,26,66,026,24*7E
$GPGSV,2,2,06,28,36,111,10,31,64,089,15*75
$GPGLL,3728.81663,N,12657.15309,E,211651.00,A,A*64
$GPRMC,211652.00,A,3728.81979,N,12657.15326,E,15.213,1.45,020524,,,A*5C
$GPVTG,1.45,T,,M,15.213,N,28.174,K,A*31
$GPGGA,211652.00,3728.81979,N,12657.15326,E,1,05,2.90,35.0,M,18.4,M,,*6E
$GPGSA,A,3,26,28,31,16,18,,,,,,,,4.02,2.90,2.79*01
$GPGSV,2,1,06,01,57,039,15,16,62,282,29,18,15,090,07,26,66,026,25*75
$GPGSV,2,2,06,28,36,111,10,31,64,089,13*73
$GPGLL,3728.81979,N,12657.15326,E,211652.00,A,A*6E
$GPRMC,211653.00,A,3728.82310,N,12657.15374,E,14.757,2.45,020524,,,A*5B
$GPVTG,2.45,T,,M,14.757,N,27.330,K,A*3B
$GPGGA,211653.00,3728.82310,N,12657.15374,E,1,05,2.90,35.3,M,18.4,M,,*6D
$GPGSA,A,3,26,28,31,16,18,,,,,,,,4.02,2.90,2.79*01
$GPGSV,2,1,06,01,57,039,19,16,62,282,31,18,15,090,07,26,66,026,24*71
$GPGSV,2,2,06,28,36,111,10,31,64,089,13*73
$GPGLL,3728.82310,N,12657.15374,E,211653.00,A,A*6E
$GPRMC,211654.00,A,3728.82569,N,12657.15390,E,13.756,2.75,020524,,,A*5B
$GPVTG,2.75,T,,M,13.756,N,25.475,K,A*3A
$GPGGA,211654.00,3728.82569,N,12657.15390,E,1,05,2.90,35.7,M,18.4,M,,*6C
$GPGSA,A,3,26,28,31,16,18,,,,,,,,4.02,2.90,2.79*01
$GPGSV,2,1,06,01,57,039,21,16,62,282,26,18,15,090,07,26,66,026,24*7C
$GPGSV,2,2,06,28,36,111,10,31,64,089,13*73
$GPGLL,3728.82569,N,12657.15390,E,211654.00,A,A*6B
$GPRMC,211655.00,A,3728.82772,N,12657.15402,E,12.554,2.92,020524,,,A*56
$GPVTG,2.92,T,,M,12.554,N,23.249,K,A*3D
$GPGGA,211655.00,3728.82772,N,12657.15402,E,1,04,3.10,36.3,M,18.4,M,,*66
$GPGSA,A,3,26,28,16,18,,,,,,,,,4.91,3.10,3.81*06
$GPGSV,2,1,06,01,57,039,22,16,62,282,26,18,15,090,07,26,66,026,25*7E
$GPGSV,2,2,06,28,36,111,10,31,64,089,*71
$GPGLL,3728.82772,N,12657.15402,E,211655.00,A,A*6E
$GPRMC,211656.00,A,3728.83002,N,12657.15422,E,11.880,3.12,020524,,,A*58
$GPVTG,3.12,T,,M,11.880,N,22.001,K,A*3C
$GPGGA,211656.00,3728.83002,N,12657.15422,E,1,04,3.10,36.8,M,18.4,M,,*6D
$GPGSA,A,3,26,28,16,18,,,,,,,,,4.91,3.10,3.81*06
$GPGSV,2,1,06,01,57,039,21,16,62,282,26,18,15,090,07,26,66,026,23*7B
$GPGSV,2,2,06,28,36,111,10,31,64,089,*71
$GPGLL,3728.83002,N,12657.15422,E,211656.00,A,A*6E
$GPRMC,211657.00,A,3728.83246,N,12657.15462,E,11.487,3.93,020524,,,A*5D
$GPVTG,3.93,T,,M,11.487,N,21.274,K,A*3D
$GPGGA,211657.00,3728.83246,N,12657.15462,E,1,04,3.10,37.2,M,18.4,M,,*61
$GPGSA,A,3,26,28,16,18,,,,,,,,,4.92,3.10,3.81*05
$GPGSV,2,1,06,01,57,039,20,16,62,282,25,18,15,090,07,26,66,026,22*78
$GPGSV,2,2,06,28,36,111,10,31,64,089,*71
$GPGLL,3728.83246,N,12657.15462,E,211657.00,A,A*69
$GPRMC,211658.00,A,3728.83423,N,12657.15498,E,10.679,4.87,020524,,,A*52
$GPVTG,4.87,T,,M,10.679,N,19.777,K,A*30
$GPGGA,211658.00,3728.83423,N,12657.15498,E,1,04,3.10,37.6,M,18.4,M,,*6A
$GPGSA,A,3,26,28,16,18,,,,,,,,,4.92,3.10,3.81*05
$GPGSV,2,1,06,01,57,039,19,16,62,282,26,18,15,090,07,26,66,026,22*71
$GPGSV,2,2,06,28,36,111,10,31,64,089,*71
$GPGLL,3728.83423,N,12657.15498,E,211658.00,A,A*66
$GPRMC,211659.00,A,3728.83553,N,12657.15540,E,9.829,6.25,020524,,,A*68
$GPVTG,6.25,T,,M,9.829,N,18.203,K,A*0E
$GPGGA,211659.00,3728.83553,N,12657.15540,E,1,04,3.10,37.9,M,18.4,M,,*66
$GPGSA,A,3,26,28,16,18,,,,,,,,,4.92,3.10,3.81*05
$GPGSV,2,1,06,01,57,039,19,16,62,282,26,18,15,090,07,26,66,026,23*70
$GPGSV,2,2,06,28,36,111,10,31,64,089,*71
$GPGLL,3728.83553,N,12657.15540,E,211659.00,A,A*65
$GPRMC,211700.00,A,3728.83682,N,12657.15590,E,9.188,7.73,020524,,,A*67
$GPVTG,7.73,T,,M,9.188,N,17.017,K,A*06
$GPGGA,211700.00,3728.83682,N,12657.15590,E,1,04,3.10,38.1,M,18.4,M,,*6E
$GPGSA,A,3,26,28,16,18,,,,,,,,,4.92,3.10,3.82*06
$GPGSV,2,1,06,01,57,039,17,16,62,282,27,18,15,090,07,26,66,026,22*7E
$GPGSV,2,2,06,28,36,111,10,31,64,089,*71
$GPGLL,3728.83682,N,12657.15590,E,211700.00,A,A*6A
$GPRMC,211701.00,A,3728.83821,N,12657.15675,E,8.737,9.29,020524,,,A*6B
$GPVTG,9.29,T,,M,8.737,N,16.181,K,A*0B
$GPGGA,211701.00,3728.83821,N,12657.15675,E,1,03,2.99,37.9,M,18.4,M,,*60
$GPGSA,A,2,26,28,16,,,,,,,,,,3.15,2.99,1.00*0E
$GPGSV,2,1,06,01,57,039,19,16,62,282,27,18,15,090,,26,66,026,20*75
$GPGSV,2,2,06,28,36,111,10,31,64,089,*71
$GPGLL,3728.83821,N,12657.15675,E,211701.00,A,A*64
$GPRMC,211702.00,A,3728.83941,N,12657.15749,E,8.223,10.63,020524,,,A*57
$GPVTG,10.63,T,,M,8.223,N,15.229,K,A*3F
$GPGGA,211702.00,3728.83941,N,12657.15749,E,1,03,2.99,37.8,M,18.4,M,,*6B
$GPGSA,A,2,26,28,16,,,,,,,,,,3.15,2.99,1.00*0E
$GPGSV,2,1,06,01,57,039,17,16,62,282,26,18,15,090,,26,66,026,18*71
$GPGSV,2,2,06,28,36,111,07,31,64,089,*77
$GPGLL,3728.83941,N,12657.15749,E,211702.00,A,A*6E
$GPRMC,211703.00,A,3728.84168,N,12657.15902,E,8.597,13.69,020524,,,A*52
$GPVTG,13.69,T,,M,8.597,N,15.922,K,A*3E
$GPGGA,211703.00,3728.84168,N,12657.15902,E,1,03,2.99,37.6,M,18.4,M,,*61
$GPGSA,A,2,26,28,16,,,,,,,,,,3.15,2.99,1.00*0E
$GPGSV,2,1,06,01,57,039,17,16,62,282,24,18,15,090,,26,66,026,18*73
$GPGSV,2,2,06,28,36,111,07,31,64,089,*77
$GPGLL,3728.84168,N,12657.15902,E,211703.00,A,A*6A
$GPRMC,211704.00,V,,,,,,,020524,,,N*7D
$GPVTG,,,,,,,,,N*30
$GPGGA,211704.00,,,,,0,00,99.99,,,,,,*67
$GPGSA,A,1,,,,,,,,,,,,,99.99,99.99,99.99*30
$GPGSV,2,1,06,01,57,039,16,16,62,282,24,18,15,090,,26,66,026,19*73
$GPGSV,2,2,06,28,36,111,07,31,64,089,*77
$GPGLL,,,,,211704.00,V,N*4B
$GPRMC,211705.00,V,,,,,,,020524,,,N*7C
$GPVTG,,,,,,,,,N*30
$GPGGA,211705.00,,,,,0,00,99.99,,,,,,*66
$GPGSA,A,1,,,,,,,,,,,,,99.99,99.99,99.99*30
$GPGSV,2,1,06,01,57,039,19,16,62,282,23,18,15,090,,26,66,026,21*70
$GPGSV,2,2,06,28,36,111,07,31,64,089,*77
$GPGLL,,,,,211705.00,V,N*4A
$GPRMC,211706.00,V,,,,,,,020524,,,N*7F
$GPVTG,,,,,,,,,N*30
$GPGGA,211706.00,,,,,0,00,99.99,,,,,,*65
$GPGSA,A,1,,,,,,,,,,,,,99.99,99.99,99.99*30
$GPGSV,2,1,06,01,57,039,22,16,62,282,29,18,15,090,,26,66,026,23*70
$GPGSV,2,2,06,28,36,111,07,31,64,089,*77
$GPGLL,,,,,211706.00,V,N*49
$GPRMC,211707.00,V,,,,,,,020524,,,N*7E
$GPVTG,,,,,,,,,N*30
$GPGGA,211707.00,,,,,0,00,99.99,,,,,,*64
$GPGSA,A,1,,,,,,,,,,,,,99.99,99.99,99.99*30
$GPGSV,2,1,06,01,57,039,20,16,62,282,27,18,15,090,,26,66,026,22*7D
$GPGSV,2,2,06,28,36,111,07,31,64,089,18*7E
$GPGLL,,,,,211707.00,V,N*48
$GPRMC,211708.00,V,,,,,,,020524,,,N*71
$GPVTG,,,,,,,,,N*30
$GPGGA,211708.00,,,,,0,00,99.99,,,,,,*6B
$GPGSA,A,1,,,,,,,,,,,,,99.99,99.99,99.99*30
$GPGSV,2,1,06,01,57,039,16,16,62,282,26,18,15,090,,26,66,026,20*7B
$GPGSV,2,2,06,28,36,111,08,31,64,089,16*7F
$GPGLL,,,,,211708.00,V,N*47
$GPRMC,211709.00,V,,,,,,,020524,,,N*70
$GPVTG,,,,,,,,,N*30
$GPGGA,211709.00,,,,,0,00,99.99,,,,,,*6A
$GPGSA,A,1,,,,,,,,,,,,,99.99,99.99,99.99*30
$GPGSV,2,1,06,01,57,039,13,16,62,282,23,18,15,090,,26,66,026,18*70
$GPGSV,2,2,06,28,36,111,08,31,64,089,12*7B
$GPGLL,,,,,211709.00,V,N*46
$GPRMC,211710.00,A,3728.85397,N,12657.16733,E,8.151,18.52,020524,,,A*51
$GPVTG,18.52,T,,M,8.151,N,15.096,K,A*35
$GPGGA,211710.00,3728.85397,N,12657.16733,E,1,03,2.99,37.6,M,18.4,M,,*6F
$GPGSA,A,2,26,28,16,,,,,,,,,,3.15,2.99,1.00*0E
$GPGSV,2,1,06,01,57,039,12,16,62,282,20,18,15,090,,26,66,026,15*7F
$GPGSV,2,2,06,28,36,111,08,31,64,089,09*71
$GPGLL,3728.85397,N,12657.16733,E,211710.00,A,A*64
$GPRMC,211711.00,A,3728.85426,N,12657.17101,E,8.456,24.23,020524,,,A*50
$GPVTG,24.23,T,,M,8.456,N,15.661,K,A*30
$GPGGA,211711.00,3728.85426,N,12657.17101,E,1,03,2.99,37.6,M,18.4,M,,*65
$GPGSA,A,2,26,28,16,,,,,,,,,,3.15,2.99,1.00*0E
$GPGSV,2,1,06,01,56,039,11,16,62,282,17,18,15,090,,26,66,026,12*7E
$GPGSV,2,2,06,28,36,111,08,31,64,089,08*70
$GPGLL,3728.85426,N,12657.17101,E,211711.00,A,A*6E
$GPRMC,211712.00,V,,,,,,,020524,,,N*7A
$GPVTG,,,,,,,,,N*30
$GPGGA,211712.00,,,,,0,00,99.99,,,,,,*60
$GPGSA,A,1,,,,,,,,,,,,,99.99,99.99,99.99*30
$GPGSV,2,1,06,01,56,039,11,16,62,282,20,18,15,090,,26,66,026,09*70
$GPGSV,2,2,06,28,36,111,08,31,64,089,08*70
$GPGLL,,,,,211712.00,V,N*4C
$GPRMC,211713.00,A,3728.85453,N,12657.17244,E,7.312,25.96,020524,,,A*55
$GPVTG,25.96,T,,M,7.312,N,13.541,K,A*30
$GPGGA,211713.00,3728.85453,N,12657.17244,E,1,04,4.40,38.9,M,18.4,M,,*62
$GPGSA,A,3,26,28,31,16,,,,,,,,,8.76,4.40,7.58*0A
$GPGSV,2,1,06,01,56,039,11,16,62,282,28,18,15,090,,26,66,026,20*73
$GPGSV,2,2,06,28,36,111,08,31,64,089,12*7B
$GPGLL,3728.85453,N,12657.17244,E,211713.00,A,A*6C
$GPRMC,211714.00,A,3728.85400,N,12657.17278,E,6.736,25.31,020524,,,A*55
$GPVTG,25.31,T,,M,6.736,N,12.475,K,A*39
$GPGGA,211714.00,3728.85400,N,12657.17278,E,1,04,4.40,40.0,M,18.4,M,,*6A
$GPGSA,A,3,26,28,31,16,,,,,,,,,8.76,4.40,7.57*05
$GPGSV,2,1,06,01,56,039,16,16,62,282,18,18,15,090,,26,66,026,21*76
$GPGSV,2,2,06,28,36,111,09,31,64,089,12*7A
$GPGLL,3728.85400,N,12657.17278,E,211714.00,A,A*62
$GPRMC,211715.00,A,3728.85495,N,12657.17470,E,6.947,25.57,020524,,,A*5E
$GPVTG,25.57,T,,M,6.947,N,12.865,K,A*3C
$GPGGA,211715.00,3728.85495,N,12657.17470,E,1,04,4.40,40.1,M,18.4,M,,*68
$GPGSA,A,3,26,28,31,16,,,,,,,,,8.76,4.40,7.57*05
$GPGSV,2,1,06,01,56,039,16,16,62,282,17,18,15,090,,26,66,026,18*73
$GPGSV,2,2,06,28,36,111,09,31,64,089,11*79
$GPGLL,3728.85495,N,12657.17470,E,211715.00,A,A*61
$GPRMC,211716.00,A,3728.85378,N,12657.17504,E,6.124,25.72,020524,,,A*51
$GPVTG,25.72,T,,M,6.124,N,11.342,K,A*3B
$GPGGA,211716.00,3728.85378,N,12657.17504,E,1,04,4.40,40.5,M,18.4,M,,*69
$GPGSA,A,3,26,28,31,16,,,,,,,,,8.75,4.40,7.57*06
$GPGSV,2,1,06,01,56,039,16,16,62,282,29,18,16,090,,26,66,026,16*73
$GPGSV,2,2,06,28,36,111,09,31,64,089,17*7F
$GPGLL,3728.85378,N,12657.17504,E,211716.00,A,A*64
$GPRMC,211717.00,A,3728.85398,N,12657.17544,E,5.863,24.44,020524,,,A*57
$GPVTG,24.44,T,,M,5.863,N,10.858,K,A*37
$GPGGA,211717.00,3728.85398,N,12657.17544,E,1,04,4.40,40.0,M,18.4,M,,*67
$GPGSA,A,3,26,28,31,16,,,,,,,,,8.75,4.40,7.57*06
$GPGSV,2,1,06,01,56,039,15,16,62,282,28,18,16,090,,26,66,026,16*71
$GPGSV,2,2,06,28,36,111,09,31,64,089,19*71
$GPGLL,3728.85398,N,12657.17544,E,211717.00,A,A*6F
$GPRMC,211718.00,A,3728.85355,N,12657.17600,E,5.423,24.78,020524,,,A*5D
$GPVTG,24.78,T,,M,5.423,N,10.044,K,A*35
$GPGGA,211718.00,3728.85355,N,12657.17600,E,1,04,4.40,40.0,M,18.4,M,,*6A
$GPGSA,A,3,26,28,31,16,,,,,,,,,8.75,4.40,7.57*06
$GPGSV,2,1,06,01,56,039,15,16,62,282,27,18,16,090,,26,66,026,17*7F
$GPGSV,2,2,06,28,36,111,09,31,64,089,17*7F
$GPGLL,3728.85355,N,12657.17600,E,211718.00,A,A*62
$GPRMC,211719.00,A,3728.85399,N,12657.17595,E,5.193,22.97,020524,,,A*5A
$GPVTG,22.97,T,,M,5.193,N,9.617,K,A*04
$GPGGA,211719.00,3728.85399,N,12657.17595,E,1,04,4.39,40.1,M,18.4,M,,*6B
$GPGSA,A,3,26,28,31,16,,,,,,,,,8.75,4.39,7.56*09
$GPGSV,2,1,06,01,56,039,15,16,62,282,25,18,16,090,,26,66,026,18*72
$GPGSV,2,2,06,28,36,111,09,31,64,089,13*7B
$GPGLL,3728.85399,N,12657.17595,E,211719.00,A,A*6C
$GPRMC,211720.00,A,3728.85418,N,12657.17519,E,4.933,17.98,020524,,,A*50
$GPVTG,17.98,T,,M,4.933,N,9.136,K,A*0A
$GPGGA,211720.00,3728.85418,N,12657.17519,E,1,04,4.39,40.1,M,18.4,M,,*6B
$GPGSA,A,3,26,28,31,16,,,,,,,,,8.74,4.39,7.56*08
$GPGSV,2,1,06,01,56,039,21,16,62,282,26,18,16,090,,26,66,026,22*7F
$GPGSV,2,2,06,28,36,111,17,31,64,089,14*73
$GPGLL,3728.85418,N,12657.17519,E,211720.00,A,A*6C
$GPRMC,211721.00,A,3728.85522,N,12657.17561,E,5.167,15.71,020524,,,A*5B
$GPVTG,15.71,T,,M,5.167,N,9.570,K,A*01
$GPGGA,211721.00,3728.85522,N,12657.17561,E,1,04,4.39,39.7,M,18.4,M,,*65
$GPGSA,A,3,26,28,31,16,,,,,,,,,8.74,4.39,7.56*08
$GPGSV,2,1,06,01,56,039,20,16,62,282,26,18,16,090,,26,66,026,20*7C
$GPGSV,2,2,06,28,36,111,12,31,64,089,16*74
$GPGLL,3728.85522,N,12657.17561,E,211721.00,A,A*6A
$GPRMC,211722.00,A,3728.85336,N,12657.17707,E,4.570,20.48,020524,,,A*56
$GPVTG,20.48,T,,M,4.570,N,8.464,K,A*0B
$GPGGA,211722.00,3728.85336,N,12657.17707,E,1,04,4.39,38.8,M,18.4,M,,*69
$GPGSA,A,3,26,28,31,16,,,,,,,,,8.74,4.39,7.56*08
$GPGSV,2,1,06,01,56,039,24,16,62,282,25,18,16,090,,26,66,026,21*7A
$GPGSV,2,2,06,28,36,111,12,31,64,089,16*74
$GPGLL,3728.85336,N,12657.17707,E,211722.00,A,A*68
$GPRMC,211723.00,A,3728.85514,N,12657.17718,E,4.912,21.26,020524,,,A*5E
$GPVTG,21.26,T,,M,4.912,N,9.096,K,A*02
$GPGGA,211723.00,3728.85514,N,12657.17718,E,1,04,4.39,38.4,M,18.4,M,,*6C
$GPGSA,A,3,26,28,31,16,,,,,,,,,8.74,4.39,7.55*0B
$GPGSV,2,1,06,01,56,039,23,16,62,282,21,18,16,090,,26,66,026,20*78
$GPGSV,2,2,06,28,36,111,11,31,64,089,17*76
$GPGLL,3728.85514,N,12657.17718,E,211723.00,A,A*61
$GPRMC,211724.00,A,3728.85518,N,12657.17762,E,4.721,22.98,020524,,,A*50
$GPVTG,22.98,T,,M,4.721,N,8.744,K,A*03
$GPGGA,211724.00,3728.85518,N,12657.17762,E,1,03,4.08,37.7,M,18.4,M,,*63
$GPGSA,A,2,26,31,16,,,,,,,,,,4.20,4.08,1.00*09
$GPGSV,2,1,06,01,56,039,21,16,62,282,18,18,16,090,,26,66,026,19*7A
$GPGSV,2,2,06,28,36,111,09,31,64,090,17*77
$GPGLL,3728.85518,N,12657.17762,E,211724.00,A,A*67
$GPRMC,211725.00,A,3728.85557,N,12657.17767,E,4.444,23.70,020524,,,A*58
$GPVTG,23.70,T,,M,4.444,N,8.231,K,A*03
$GPGGA,211725.00,3728.85557,N,12657.17767,E,1,03,4.08,37.5,M,18.4,M,,*6E
$GPGSA,A,2,26,31,16,,,,,,,,,,4.20,4.08,1.00*09
$GPGSV,2,1,06,01,56,039,18,16,62,282,20,18,16,090,,26,66,026,17*75
$GPGSV,2,2,06,28,36,111,08,31,64,090,15*74
$GPGLL,3728.85557,N,12657.17767,E,211725.00,A,A*68
$GPRMC,211726.00,A,3728.85613,N,12657.17774,E,4.246,24.13,020524,,,A*5C
$GPVTG,24.13,T,,M,4.246,N,7.864,K,A*00
$GPGGA,211726.00,3728.85613,N,12657.17774,E,1,03,4.08,37.3,M,18.4,M,,*6A
$GPGSA,A,2,26,31,16,,,,,,,,,,4.20,4.08,1.00*09
$GPGSV,2,1,06,01,56,039,18,16,62,282,22,18,16,090,,26,66,026,15*75
$GPGSV,2,2,06,28,36,111,09,31,64,090,14*74
$GPGLL,3728.85613,N,12657.17774,E,211726.00,A,A*6A
$GPRMC,211727.00,A,3728.85713,N,12657.17837,E,4.319,,020524,,,A*75
$GPVTG,,T,,M,4.319,N,7.999,K,A*22
$GPGGA,211727.00,3728.85713,N,12657.17837,E,1,03,4.08,37.1,M,18.4,M,,*60
$GPGSA,A,2,26,31,16,,,,,,,,,,4.20,4.08,1.00*09
$GPGSV,2,1,06,01,56,039,24,16,62,282,23,18,16,090,19,26,66,026,13*75
$GPGSV,2,2,06,28,36,111,09,31,64,090,14*74
$GPGLL,3728.85713,N,12657.17837,E,211727.00,A,A*62
$GPRMC,211728.00,A,3728.85891,N,12657.18041,E,5.206,31.21,020524,,,A*58
$GPVTG,31.21,T,,M,5.206,N,9.642,K,A*04
$GPGGA,211728.00,3728.85891,N,12657.18041,E,1,03,4.07,36.5,M,18.4,M,,*66
$GPGSA,A,2,26,31,16,,,,,,,,,,4.20,4.07,1.00*06
$GPGSV,2,1,06,01,56,039,24,16,62,282,24,18,16,090,20,26,66,026,18*73
$GPGSV,2,2,06,28,36,111,08,31,64,090,14*75
$GPGLL,3728.85891,N,12657.18041,E,211728.00,A,A*6E
$GPRMC,211729.00,A,3728.85966,N,12657.18176,E,5.376,35.80,020524,,,A*5C
$GPVTG,35.80,T,,M,5.376,N,9.957,K,A*06
$GPGGA,211729.00,3728.85966,N,12657.18176,E,1,03,4.07,36.2,M,18.4,M,,*6C
$GPGSA,A,2,26,31,16,,,,,,,,,,4.20,4.07,1.00*06
$GPGSV,2,1,06,01,56,039,24,16,62,282,23,18,16,090,21,26,66,026,19*74
$GPGSV,2,2,06,28,36,111,08,31,64,090,14*75
$GPGLL,3728.85966,N,12657.18176,E,211729.00,A,A*63
$GPRMC,211730.00,A,3728.86138,N,12657.18390,E,6.706,47.72,020524,,,A*56
$GPVTG,47.72,T,,M,6.706,N,12.420,K,A*39
$GPGGA,211730.00,3728.86138,N,12657.18390,E,1,05,2.88,36.9,M,18.4,M,,*62
$GPGSA,A,3,26,28,31,16,18,,,,,,,,4.02,2.88,2.81*0F
$GPGSV,2,1,06,01,56,039,25,16,62,282,21,18,16,090,19,26,66,026,20*76
$GPGSV,2,2,06,28,36,111,15,31,64,090,13*7E
$GPGLL,3728.86138,N,12657.18390,E,211730.00,A,A*61
$GPRMC,211731.00,A,3728.86240,N,12657.18704,E,8.464,60.74,020524,,,A*58
$GPVTG,60.74,T,,M,8.464,N,15.675,K,A*36
$GPGGA,211731.00,3728.86240,N,12657.18704,E,1,05,2.88,37.9,M,18.4,M,,*67
$GPGSA,A,3,26,28,31,16,18,,,,,,,,4.02,2.88,2.81*0F
$GPGSV,2,1,06,01,56,039,32,16,62,282,22,18,16,090,19,26,66,026,23*70
$GPGSV,2,2,06,28,36,111,23,31,64,090,13*7B
$GPGLL,3728.86240,N,12657.18704,E,211731.00,A,A*65
$GPRMC,211732.00,A,3728.86225,N,12657.19137,E,10.462,72.49,020524,,,A*6D
$GPVTG,72.49,T,,M,10.462,N,19.376,K,A*0E
$GPGGA,211732.00,3728.86225,N,12657.19137,E,1,05,2.88,38.7,M,18.4,M,,*61
$GPGSA,A,3,26,28,31,16,18,,,,,,,,4.02,2.88,2.81*0F
$GPGSV,2,1,06,01,56,039,25,16,62,282,23,18,16,090,22,26,66,026,23*7F
$GPGSV,2,2,06,28,36,111,23,31,64,090,13*7B
$GPGLL,3728.86225,N,12657.19137,E,211732.00,A,A*62
$GPRMC,211733.00,A,3728.86106,N,12657.19593,E,12.101,82.04,020524,,,A*60
$GPVTG,82.04,T,,M,12.101,N,22.412,K,A*07
$GPGGA,211733.00,3728.86106,N,12657.19593,E,1,05,2.88,39.2,M,18.4,M,,*6C
$GPGSA,A,3,26,28,31,16,18,,,,,,,,4.02,2.88,2.81*0F
$GPGSV,2,1,06,01,56,039,24,16,62,282,22,18,16,090,22,26,66,026,21*7D
$GPGSV,2,2,06,28,36,111,23,31,64,090,16*7E
$GPGLL,3728.86106,N,12657.19593,E,211733.00,A,A*6B
$GPRMC,211734.00,A,3728.85710,N,12657.20109,E,14.245,93.81,020524,,,A*60
$GPVTG,93.81,T,,M,14.245,N,26.383,K,A*04
$GPGGA,211734.00,3728.85710,N,12657.20109,E,1,05,2.88,39.6,M,18.4,M,,*60
$GPGSA,A,3,26,28,31,16,18,,,,,,,,4.02,2.88,2.81*0F
$GPGSV,2,1,06,01,56,039,24,16,62,282,20,18,16,090,25,26,66,026,30*78
$GPGSV,2,2,06,28,36,111,25,31,64,090,21*7C
$GPGLL,3728.85710,N,12657.20109,E,211734.00,A,A*63
$GPRMC,211735.00,A,3728.85452,N,12657.20623,E,15.464,101.88,020524,,,A*5C
$GPVTG,101.88,T,,M,15.464,N,28.639,K,A*39
$GPGGA,211735.00,3728.85452,N,12657.20623,E,1,05,2.88,39.8,M,18.4,M,,*65
$GPGSA,A,3,26,28,31,16,18,,,,,,,,4.02,2.88,2.81*0F
$GPGSV,2,1,06,01,56,039,24,16,62,282,19,18,16,090,24,26,66,026,34*77
$GPGSV,2,2,06,28,36,111,23,31,64,090,25*7E
$GPGLL,3728.85452,N,12657.20623,E,211735.00,A,A*68
$GPRMC,211736.00,A,3728.85279,N,12657.21158,E,16.121,108.34,020524,,,A*53
$GPVTG,108.34,T,,M,16.121,N,29.856,K,A*36
$GPGGA,211736.00,3728.85279,N,12657.21158,E,1,05,2.88,40.0,M,18.4,M,,*65
$GPGSA,A,3,26,28,31,16,18,,,,,,,,4.02,2.88,2.81*0F
$GPGSV,2,1,06,01,56,039,22,16,62,282,20,18,16,090,22,26,66,026,34*7D
$GPGSV,2,2,06,28,36,111,22,31,64,090,26*7C
$GPGLL,3728.85279,N,12657.21158,E,211736.00,A,A*6E
$GPRMC,211737.00,A,3728.85016,N,12657.21840,E,18.817,111.12,020524,,,A*57
$GPVTG,111.12,T,,M,18.817,N,34.849,K,A*3A
$GPGGA,211737.00,3728.85016,N,12657.21840,E,1,05,2.88,40.3,M,18.4,M,,*6C
$GPGSA,A,3,26,28,31,16,18,,,,,,,,4.02,2.88,2.81*0F
$GPGSV,2,1,06,01,56,039,23,16,62,282,21,18,16,090,20,26,66,026,34*7F
$GPGSV,2,2,06,28,36,111,23,31,64,090,28*73
$GPGLL,3728.85016,N,12657.21840,E,211737.00,A,A*64
$GPRMC,211738.00,A,3728.84910,N,12657.22570,E,20.143,111.01,020524,,,A*5A
$GPVTG,111.01,T,,M,20.143,N,37.305,K,A*3B
$GPGGA,211738.00,3728.84910,N,12657.22570,E,1,05,2.88,40.6,M,18.4,M,,*65
$GPGSA,A,3,26,28,31,16,18,,,,,,,,4.02,2.88,2.81*0F
$GPGSV,2,1,06,01,56,039,25,16,62,282,24,18,16,090,20,26,66,026,35*7D
$GPGSV,2,2,06,28,36,111,28,31,64,090,28*78
$GPGLL,3728.84910,N,12657.22570,E,211738.00,A,A*68
$GPRMC,211739.00,A,3728.84788,N,12657.23274,E,20.707,111.72,020524,,,A*54
$GPVTG,111.72,T,,M,20.707,N,38.349,K,A*3E
$GPGGA,211739.00,3728.84788,N,12657.23274,E,1,05,2.87,40.7,M,18.4,M,,*67
$GPGSA,A,3,26,28,31,16,18,,,,,,,,4.02,2.87,2.81*00
$GPGSV,2,1,06,01,56,039,26,16,62,282,25,18,16,090,24,26,66,026,34*7A
$GPGSV,2,2,06,28,36,111,28,31,64,090,28*78
$GPGLL,3728.84788,N,12657.23274,E,211739.00,A,A*64
$GPRMC,211740.00,A,3728.84521,N,12657.23844,E,20.324,114.47,020524,,,A*54
$GPVTG,114.47,T,,M,20.324,N,37.640,K,A*3B
$GPGGA,211740.00,3728.84521,N,12657.23844,E,1,05,2.87,40.7,M,18.4,M,,*61
$GPGSA,A,3,26,28,31,16,18,,,,,,,,4.02,2.87,2.81*00
$GPGSV,2,1,06,01,56,039,26,16,62,283,23,18,16,090,21,26,66,026,34*78
$GPGSV,2,2,06,28,36,111,27,31,64,090,27*78
$GPGLL,3728.84521,N,12657.23844,E,211740.00,A,A*62
$GPRMC,211741.00,A,3728.84285,N,12657.24417,E,19.671,115.51,020524,,,A*58
$GPVTG,115.51,T,,M,19.671,N,36.431,K,A*37
$GPGGA,211741.00,3728.84285,N,12657.24417,E,1,05,2.87,40.8,M,18.4,M,,*6B
$GPGSA,A,3,26,28,31,16,18,,,,,,,,4.02,2.87,2.81*00
$GPGSV,2,1,06,01,56,039,24,16,62,283,20,18,16,090,23,26,66,026,37*78
$GPGSV,2,2,06,28,36,111,24,31,64,090,27*7B
$GPGLL,3728.84285,N,12657.24417,E,211741.00,A,A*67
$GPRMC,211742.00,A,3728.83868,N,12657.24757,E,18.473,120.56,020524,,,A*52
$GPVTG,120.56,T,,M,18.473,N,34.212,K,A*32
$GPGGA,211742.00,3728.83868,N,12657.24757,E,1,05,2.87,40.8,M,18.4,M,,*61
$GPGSA,A,3,26,28,31,16,18,,,,,,,,4.02,2.87,2.81*00
$GPGSV,2,1,06,01,56,039,23,16,62,283,16,18,16,090,24,26,66,026,34*7E
$GPGSV,2,2,06,28,36,111,22,31,64,090,26*7C
$GPGLL,3728.83868,N,12657.24757,E,211742.00,A,A*6D
$GPRMC,211743.00,A,3728.83578,N,12657.25249,E,18.239,121.12,020524,,,A*5D
$GPVTG,121.12,T,,M,18.239,N,33.778,K,A*35
$GPGGA,211743.00,3728.83578,N,12657.25249,E,1,05,2.87,41.0,M,18.4,M,,*6E
$GPGSA,A,3,26,28,31,16,18,,,,,,,,4.02,2.87,2.81*00
$GPGSV,2,1,06,01,56,039,21,16,62,283,14,18,16,090,21,26,66,026,34*7B
$GPGSV,2,2,06,28,36,111,20,31,64,090,26*7E
$GPGLL,3728.83578,N,12657.25249,E,211743.00,A,A*6B
$GPRMC,211744.00,A,3728.83217,N,12657.25555,E,17.046,125.21,020524,,,A*5F
$GPVTG,125.21,T,,M,17.046,N,31.570,K,A*3C
$GPGGA,211744.00,3728.83217,N,12657.25555,E,1,05,2.87,41.0,M,18.4,M,,*6D
$GPGSA,A,3,26,28,31,16,18,,,,,,,,4.02,2.87,2.81*00
$GPGSV,2,1,06,01,56,039,21,16,62,283,14,18,16,090,19,26,66,026,23*76
$GPGSV,2,2,06,28,36,111,20,31,64,090,24*7C
$GPGLL,3728.83217,N,12657.25555,E,211744.00,A,A*68
$GPRMC,211745.00,A,3728.82955,N,12657.25978,E,16.574,125.40,020524,,,A*53
$GPVTG,125.40,T,,M,16.574,N,30.695,K,A*37
$GPGGA,211745.00,3728.82955,N,12657.25978,E,1,05,2.87,41.1,M,18.4,M,,*62
$GPGSA,A,3,26,28,31,16,18,,,,,,,,4.02,2.87,2.81*00
$GPGSV,2,1,06,01,56,039,19,16,62,283,14,18,16,090,17,26,66,026,24*74
$GPGSV,2,2,06,28,36,111,21,31,64,090,22*7B
$GPGLL,3728.82955,N,12657.25978,E,211745.00,A,A*66
$GPRMC,211746.00,A,3728.82662,N,12657.26387,E,16.538,125.94,020524,,,A*53
$GPVTG,125.94,T,,M,16.538,N,30.628,K,A*30
$GPGGA,211746.00,3728.82662,N,12657.26387,E,1,05,2.87,41.2,M,18.4,M,,*60
$GPGSA,A,3,26,28,31,16,18,,,,,,,,4.02,2.87,2.81*00
$GPGSV,2,1,06,01,56,039,17,16,62,283,13,18,16,090,17,26,66,026,30*78
$GPGSV,2,2,06,28,36,111,19,31,64,090,20*72
$GPGLL,3728.82662,N,12657.26387,E,211746.00,A,A*67
$GPRMC,211747.00,A,3728.82594,N,12657.26764,E,14.133,125.11,020524,,,A*51
$GPVTG,125.11,T,,M,14.133,N,26.173,K,A*3E
$GPGGA,211747.00,3728.82594,N,12657.26764,E,1,04,14.20,41.4,M,18.4,M,,*5F
$GPGSA,A,3,26,28,31,18,,,,,,,,,18.32,14.20,11.58*35
$GPGSV,2,1,06,01,56,039,17,16,62,283,13,18,16,090,15,26,66,026,30*7A
$GPGSV,2,2,06,28,36,111,17,31,64,090,19*76
$GPGLL,3728.82594,N,12657.26764,E,211747.00,A,A*65
$GPRMC,211748.00,V,,,,,,,020524,,,N*75
$GPVTG,,,,,,,,,N*30
$GPGGA,211748.00,,,,,0,03,28.87,,,,,,*69
$GPGSA,A,1,26,28,31,,,,,,,,,,28.89,28.87,1.00*03
$GPGSV,2,1,06,01,56,039,16,16,62,283,13,18,16,090,,26,66,027,20*7F
$GPGSV,2,2,06,28,36,111,15,31,64,090,19*74
$GPGLL,,,,,211748.00,V,N*43
$GPRMC,211749.00,V,,,,,,,020524,,,N*74
$GPVTG,,,,,,,,,N*30
$GPGGA,211749.00,,,,,0,03,28.84,,,,,,*6B
$GPGSA,A,1,26,28,31,,,,,,,,,,28.86,28.84,1.00*0F
$GPGSV,2,1,06,01,56,039,17,16,62,283,11,18,16,090,19,26,66,027,29*7D
$GPGSV,2,2,06,28,35,111,13,31,64,090,19*71
$GPGLL,,,,,211749.00,V,N*42
$GPRMC,211750.00,V,,,,,,,020524,,,N*7C
$GPVTG,,,,,,,,,N*30
$GPGGA,211750.00,,,,,0,03,28.81,,,,,,*66
$GPGSA,A,1,26,28,31,,,,,,,,,,28.83,28.81,1.00*0F
$GPGSV,2,1,06,01,56,039,18,16,62,283,10,18,16,090,19,26,66,027,27*7D
$GPGSV,2,2,06,28,35,111,12,31,64,090,19*70
$GPGLL,,,,,211750.00,V,N*4A
$GPRMC,211751.00,V,,,,,,,020524,,,N*7D
$GPVTG,,,,,,,,,N*30
$GPGGA,211751.00,,,,,0,03,28.78,,,,,,*61
$GPGSA,A,1,26,28,31,,,,,,,,,,28.80,28.78,1.00*0A
$GPGSV,2,1,06,01,56,039,19,16,62,283,10,18,16,090,20,26,66,027,27*76
$GPGSV,2,2,06,28,35,111,12,31,64,090,20*7A
$GPGLL,,,,,211751.00,V,N*4B
$GPRMC,211752.00,A,3728.82825,N,12657.27863,E,6.931,113.59,020524,,,A*6B
$GPVTG,113.59,T,,M,6.931,N,12.836,K,A*01
$GPGGA,211752.00,3728.82825,N,12657.27863,E,1,04,14.17,41.2,M,18.4,M,,*57
$GPGSA,A,3,26,28,31,18,,,,,,,,,18.29,14.17,11.57*34
$GPGSV,2,1,07,01,56,039,18,16,62,283,10,18,16,090,22,26,66,027,25*76
$GPGSV,2,2,07,27,,,29,28,35,111,12,31,64,090,21*74
$GPGLL,3728.82825,N,12657.27863,E,211752.00,A,A*6F
$GPRMC,211753.00,A,3728.82947,N,12657.28251,E,7.228,105.30,020524,,,A*61
$GPVTG,105.30,T,,M,7.228,N,13.386,K,A*0A
$GPGGA,211753.00,3728.82947,N,12657.28251,E,1,04,14.16,40.7,M,18.4,M,,*52
$GPGSA,A,3,26,28,31,18,,,,,,,,,18.28,14.16,11.57*34
$GPGSV,2,1,07,01,56,039,17,16,62,283,10,18,16,090,23,26,66,027,32*7E
$GPGSV,2,2,07,27,,,36,28,35,111,12,31,64,090,25*7E
$GPGLL,3728.82947,N,12657.28251,E,211753.00,A,A*6F
$GPRMC,211754.00,A,3728.83031,N,12657.28581,E,6.815,100.64,020524,,,A*64
$GPVTG,100.64,T,,M,6.815,N,12.622,K,A*01
$GPGGA,211754.00,3728.83031,N,12657.28581,E,1,04,14.16,39.8,M,18.4,M,,*57
$GPGSA,A,3,26,28,31,18,,,,,,,,,18.28,14.16,11.56*35
$GPGSV,2,1,07,01,56,039,16,16,62,283,10,18,16,090,30,26,66,027,32*7D
$GPGSV,2,2,07,27,,,36,28,35,111,18,31,64,090,27*76
$GPGLL,3728.83031,N,12657.28581,E,211754.00,A,A*6B
$GPRMC,211755.00,A,3728.83159,N,12657.28712,E,5.067,94.07,020524,,,A*55
$GPVTG,94.07,T,,M,5.067,N,9.384,K,A*05
$GPGGA,211755.00,3728.83159,N,12657.28712,E,1,04,14.15,39.5,M,18.4,M,,*5F
$GPGSA,A,3,26,28,31,18,,,,,,,,,18.27,14.15,11.56*39
$GPGSV,2,1,07,01,56,039,15,16,62,283,10,18,16,090,22,26,66,027,30*7F
$GPGSV,2,2,07,27,,,27,28,35,111,20,31,64,090,26*7C
$GPGLL,3728.83159,N,12657.28712,E,211755.00,A,A*6D
$GPRMC,211756.00,A,3728.83202,N,12657.28899,E,4.284,85.68,020524,,,A*50
$GPVTG,85.68,T,,M,4.284,N,7.934,K,A*0D
$GPGGA,211756.00,3728.83202,N,12657.28899,E,1,04,14.14,39.2,M,18.4,M,,*5B
$GPGSA,A,3,26,28,31,18,,,,,,,,,18.27,14.14,11.56*38
$GPGSV,2,1,07,01,56,039,16,16,62,283,13,18,16,090,20,26,66,027,30*7D
$GPGSV,2,2,07,27,,,28,28,35,111,19,31,64,090,27*78
$GPGLL,3728.83202,N,12657.28899,E,211756.00,A,A*6F
$GPRMC,211757.00,A,3728.83158,N,12657.28986,E,3.506,78.46,020524,,,A*56
