04,06,22,20,,,,,,,,2.39,1.50,1.87*08
$GPGSV,2,1,08,04,28,071,44,06,63,337,32,11,,,34,17,,,31*7C
$GPGSV,2,2,08,19,83,103,38,20,22,233,29,22,24,197,34,50,43,152,34*7D
$GPGLL,3733.32204,N,12712.33572,E,054457.00,A,A*6A
$GPRMC,054458.00,A,3733.32202,N,12712.33573,E,0.065,,180524,,,A*72
$GPVTG,,T,,M,0.065,N,0.120,K,A*23
$GPGGA,054458.00,3733.32202,N,12712.33573,E,1,05,1.50,33.0,M,18.9,M,,*66
$GPGSA,A,3,19,04,06,22,20,,,,,,,,2.39,1.50,1.87*08
$GPGSV,2,1,08,04,28,071,44,06,63,337,32,11,,,32,17,,,31*7A
$GPGSV,2,2,08,19,83,104,38,20,22,233,27,22,24,197,32,50,46,180,33*7F
$GPGLL,3733.32202,N,12712.33573,E,054458.00,A,A*62
$GPRMC,054459.00,A,3733.32199,N,12712.33576,E,0.057,,180524,,,A*76
$GPVTG,,T,,M,0.057,N,0.106,K,A*26
$GPGGA,054459.00,3733.32199,N,12712.33576,E,1,05,1.50,33.3,M,18.9,M,,*60
$GPGSA,A,3,19,04,06,22,20,,,,,,,,2.39,1.50,1.87*08
$GPGSV,2,1,08,04,28,071,44,06,63,337,32,11,,,31,17,,,31*79
$GPGSV,2,2,08,19,83,104,39,20,22,234,27,22,24,197,30,50,46,180,37*7F
$GPGLL,3733.32199,N,12712.33576,E,054459.00,A,A*67
$GPRMC,054500.00,A,3733.32196,N,12712.33582,E,0.183,,180524,,,A*77
$GPVTG,,T,,M,0.183,N,0.338,K,A*21
$GPGGA,054500.00,3733.32196,N,12712.33582,E,1,05,1.50,33.7,M,18.9,M,,*6D
$GPGSA,A,3,19,04,06,22,20,,,,,,,,2.39,1.50,1.87*08
$GPGSV,2,1,08,04,28,071,44,06,63,337,31,11,,,30,17,,,31*7B
$GPGSV,2,2,08,19,83,104,39,20,22,234,27,22,24,197,31,50,46,180,34*7D
$GPGLL,3733.32196,N,12712.33582,E,054500.00,A,A*6E
$GPRMC,054501.00,A,3733.32182,N,12712.33597,E,0.410,,180524,,,A*78
$GPVTG,,T,,M,0.410,N,0.759,K,A*2D
$GPGGA,054501.00,3733.32182,N,12712.33597,E,1,05,1.50,34.1,M,18.9,M,,*6C
$GPGSA,A,3,19,04,06,22,20,,,,,,,,2.39,1.50,1.87*08
$GPGSV,2,1,08,04,28,071,35,06,63,337,32,11,,,34,17,,,32*79
$GPGSV,2,2,08,19,83,104,39,20,22,234,29,22,24,197,35,50,46,180,35*76
$GPGLL,3733.32182,N,12712.33597,E,054501.00,A,A*6E
$GPRMC,054502.00,A,3733.32154,N,12712.33590,E,1.321,210.51,180524,,,A*6A
$GPVTG,210.51,T,,M,1.321,N,2.447,K,A*3E
$GPGGA,054502.00,3733.32154,N,12712.33590,E,1,05,1.50,34.5,M,18.9,M,,*67
$GPGSA,A,3,19,04,06,22,20,,,,,,,,2.39,1.50,1.87*08
$GPGSV,2,1,08,04,28,071,38,06,63,337,35,11,,,33,17,,,27*70
$GPGSV,2,2,08,19,83,104,40,20,22,234,28,22,24,197,32,50,46,180,32*79
$GPGLL,3733.32154,N,12712.33590,E,054502.00,A,A*61
$GPRMC,054503.00,A,3733.32112,N,12712.33562,E,2.015,197.78,180524,,,A*64
$GPVTG,197.78,T,,M,2.015,N,3.732,K,A*3E
$GPGGA,054503.00,3733.32112,N,12712.33562,E,1,06,1.15,34.5,M,18.9,M,,*6B
$GPGSA,A,3,19,04,06,11,22,20,,,,,,,2.09,1.15,1.74*06
$GPGSV,2,1,08,04,28,071,36,06,63,337,32,11,35,287,36,17,,,26*46
$GPGSV,2,2,08,19,83,104,39,20,22,234,29,22,24,197,26,50,46,180,35*74
$GPGLL,3733.32112,N,12712.33562,E,054503.00,A,A*6F
$GPRMC,054504.00,A,3733.32046,N,12712.33546,E,2.521,198.73,180524,,,A*63
$GPVTG,198.73,T,,M,2.521,N,4.669,K,A*30
$GPGGA,054504.00,3733.32046,N,12712.33546,E,1,06,1.15,34.8,M,18.9,M,,*67
$GPGSA,A,3,19,04,06,11,22,20,,,,,,,2.09,1.15,1.74*06
$GPGSV,2,1,08,04,28,071,28,06,63,337,32,11,35,287,33,17,,,25*4F
$GPGSV,2,2,08,19,83,104,41,20,22,234,29,22,24,197,32,50,46,180,36*7D
$GPGLL,3733.32046,N,12712.33546,E,054504.00,A,A*6E
$GPRMC,054505.00,A,3733.32000,N,12712.33465,E,3.201,201.88,180524,,,A*63
$GPVTG,201.88,T,,M,3.201,N,5.929,K,A*39
$GPGGA,054505.00,3733.32000,N,12712.33465,E,1,06,1.15,34.6,M,18.9,M,,*6A
$GPGSA,A,3,19,04,06,11,22,20,,,,,,,2.09,1.15,1.74*06
$GPGSV,2,1,08,04,28,071,28,06,63,337,39,11,35,287,38,17,,,25*4F
$GPGSV,2,2,08,19,83,104,41,20,22,234,29,22,24,197,31,50,46,180,34*7C
$GPGLL,3733.32000,N,12712.33465,E,054505.00,A,A*6D
$GPRMC,054506.00,A,3733.31939,N,12712.33443,E,2.808,199.50,180524,,,A*61
$GPVTG,199.50,T,,M,2.808,N,5.201,K,A*3D
$GPGGA,054506.00,3733.31939,N,12712.33443,E,1,06,1.15,34.3,M,18.9,M,,*68
$GPGSA,A,3,19,04,06,11,22,20,,,,,,,2.09,1.15,1.74*06
$GPGSV,2,1,08,04,28,071,32,06,63,337,38,11,35,287,28,17,,,26*47
$GPGSV,2,2,08,19,83,104,41,20,22,234,28,22,24,197,26,50,46,180,33*7C
$GPGLL,3733.31939,N,12712.33443,E,054506.00,A,A*6A
$GPRMC,054507.00,A,3733.31843,N,12712.33443,E,3.593,191.94,180524,,,A*62
$GPVTG,191.94,T,,M,3.593,N,6.654,K,A*34
$GPGGA,054507.00,3733.31843,N,12712.33443,E,1,06,1.15,34.3,M,18.9,M,,*65
$GPGSA,A,3,19,04,06,11,22,20,,,,,,,2.09,1.15,1.74*06
$GPGSV,2,1,08,04,28,071,28,06,63,337,38,11,35,287,36,17,,,31*45
$GPGSV,2,2,08,19,83,104,42,20,22,234,30,22,24,197,28,50,46,180,34*7F
$GPGLL,3733.31843,N,12712.33443,E,054507.00,A,A*67
$GPRMC,054508.00,A,3733.31737,N,12712.33402,E,4.244,193.54,180524,,,A*60
$GPVTG,193.54,T,,M,4.244,N,7.860,K,A*38
$GPGGA,054508.00,3733.31737,N,12712.33402,E,1,06,1.15,34.1,M,18.9,M,,*61
$GPGSA,A,3,19,04,06,11,22,20,,,,,,,2.09,1.15,1.74*06
$GPGSV,2,1,08,04,28,071,27,06,63,337,37,11,35,287,28,17,,,39*42
$GPGSV,2,2,08,19,83,104,42,20,22,234,26,22,24,197,27,50,46,180,35*76
$GPGLL,3733.31737,N,12712.33402,E,054508.00,A,A*61
$GPRMC,054509.00,A,3733.31612,N,12712.33384,E,4.565,189.24,180524,,,A*66
$GPVTG,189.24,T,,M,4.565,N,8.455,K,A*35
$GPGGA,054509.00,3733.31612,N,12712.33384,E,1,06,1.15,34.1,M,18.9,M,,*6F
$GPGSA,A,3,19,04,06,11,22,20,,,,,,,2.09,1.15,1.74*06
$GPGSV,3,1,09,04,28,071,35,06,63,337,36,09,,,26,11,35,287,35*4D
$GPGSV,3,2,09,17,,,39,19,83,104,42,20,22,234,23,22,24,197,25*45
$GPGSV,3,3,09,50,46,180,34*49
$GPGLL,3733.31612,N,12712.33384,E,054509.00,A,A*6F
$GPRMC,054510.00,A,3733.31451,N,12712.33296,E,4.507,186.07,180524,,,A*63
$GPVTG,186.07,T,,M,4.507,N,8.348,K,A*34
$GPGGA,054510.00,3733.31451,N,12712.33296,E,1,06,1.15,35.4,M,18.9,M,,*64
$GPGSA,A,3,19,04,06,11,22,20,,,,,,,2.09,1.15,1.74*06
$GPGSV,3,1,09,04,28,071,39,06,63,337,32,09,,,26,11,35,287,30*40
$GPGSV,3,2,09,17,,,37,19,83,104,42,20,22,234,23,22,24,197,28*46
$GPGSV,3,3,09,50,46,180,37*4A
$GPGLL,3733.31451,N,12712.33296,E,054510.00,A,A*60
$GPRMC,054511.00,A,3733.31313,N,12712.33308,E,4.695,187.49,180524,,,A*66
$GPVTG,187.49,T,,M,4.695,N,8.695,K,A*32
$GPGGA,054511.00,3733.31313,N,12712.33308,E,1,06,1.15,35.4,M,18.9,M,,*62
$GPGSA,A,3,19,04,06,11,22,20,,,,,,,2.09,1.15,1.74*06
$GPGSV,3,1,09,04,28,071,34,06,63,337,36,09,,,25,11,35,287,39*43
$GPGSV,3,2,09,17,,,39,19,83,104,41,20,22,234,23,22,24,197,32*40
$GPGSV,3,3,09,50,46,180,35*48
$GPGLL,3733.31313,N,12712.33308,E,054511.00,A,A*66
$GPRMC,054512.00,A,3733.31182,N,12712.33274,E,4.711,189.89,180524,,,A*6A
$GPVTG,189.89,T,,M,4.711,N,8.725,K,A*37
$GPGGA,054512.00,3733.31182,N,12712.33274,E,1,06,1.15,35.1,M,18.9,M,,*64
$GPGSA,A,3,19,04,06,11,22,20,,,,,,,2.09,1.15,1.74*06
$GPGSV,3,1,09,04,28,071,21,06,63,337,30,09,,,37,11,35,287,34*4F
$GPGSV,3,2,09,17,,,40,19,83,104,41,20,22,234,21,22,24,197,27*48
$GPGSV,3,3,09,50,46,180,37*4A
$GPGLL,3733.31182,N,12712.33274,E,054512.00,A,A*65
$GPRMC,054513.00,A,3733.31084,N,12712.33207,E,3.771,200.52,180524,,,A*6D
$GPVTG,200.52,T,,M,3.771,N,6.983,K,A*3E
$GPGGA,054513.00,3733.31084,N,12712.33207,E,1,05,1.20,34.6,M,18.9,M,,*65
$GPGSA,A,3,19,04,06,11,22,,,,,,,,2.19,1.20,1.83*0B
$GPGSV,3,1,09,04,28,071,20,06,63,337,39,09,,,41,11,35,287,41*44
$GPGSV,3,2,09,17,,,38,19,83,104,44,20,22,234,,22,24,197,26*40
$GPGSV,3,3,09,50,46,180,34*49
$GPGLL,3733.31084,N,12712.33207,E,054513.00,A,A*67
$GPRMC,054514.00,A,3733.31045,N,12712.33104,E,3.271,224.54,180524,,,A*62
$GPVTG,224.54,T,,M,3.271,N,6.058,K,A*34
$GPGGA,054514.00,3733.31045,N,12712.33104,E,1,05,1.21,33.6,M,18.9,M,,*69
$GPGSA,A,3,19,04,06,11,22,,,,,,,,2.19,1.21,1.83*0A
$GPGSV,3,1,09,04,28,071,21,06,63,337,42,09,,,31,11,35,287,39*41
$GPGSV,3,2,09,17,,,36,19,83,104,42,20,22,234,25,22,24,197,26*4F
$GPGSV,3,3,09,50,46,180,39*44
$GPGLL,3733.31045,N,12712.33104,E,054514.00,A,A*6D
$GPRMC,054515.00,A,3733.31016,N,12712.32981,E,3.611,233.72,180524,,,A*61
$GPVTG,233.72,T,,M,3.611,N,6.688,K,A*3F
$GPGGA,054515.00,3733.31016,N,12712.32981,E,1,05,1.21,32.8,M,18.9,M,,*65
$GPGSA,A,3,19,04,06,11,22,,,,,,,,2.19,1.21,1.83*0A
$GPGSV,3,1,09,04,28,071,23,06,63,337,41,09,,,30,11,35,287,39*41
$GPGSV,3,2,09,17,,,40,19,83,104,44,20,22,234,23,22,24,197,25*4D
$GPGSV,3,3,09,50,46,180,31*4C
$GPGLL,3733.31016,N,12712.32981,E,054515.00,A,A*6E
$GPRMC,054516.00,A,3733.31013,N,12712.32823,E,4.402,247.87,180524,,,A*60
$GPVTG,247.87,T,,M,4.402,N,8.152,K,A*3F
$GPGGA,054516.00,3733.31013,N,12712.32823,E,1,06,1.21,32.2,M,18.9,M,,*63
$GPGSA,A,3,19,04,06,11,22,20,,,,,,,2.19,1.21,1.83*08
$GPGSV,3,1,09,04,28,071,24,06,63,337,36,09,,,34,11,35,287,38*43
$GPGSV,3,2,09,17,,,38,19,83,104,43,20,22,234,22,22,24,197,24*45
$GPGSV,3,3,09,50,46,180,31*4C
$GPGLL,3733.31013,N,12712.32823,E,054516.00,A,A*61
$GPRMC,054517.00,A,3733.31040,N,12712.32634,E,6.246,268.44,180524,,,A*69
$GPVTG,268.44,T,,M,6.246,N,11.568,K,A*0C
$GPGGA,054517.00,3733.31040,N,12712.32634,E,1,06,1.21,31.1,M,18.9,M,,*6C
$GPGSA,A,3,19,04,06,11,22,20,,,,,,,2.19,1.21,1.83*08
$GPGSV,3,1,10,04,28,071,24,06,63,337,35,09,,,29,11,35,287,35*49
$GPGSV,3,2,10,12,,,28,17,,,26,19,83,104,33,20,22,234,20*71
$GPGSV,3,3,10,22,24,197,21,50,46,180,*7C
$GPGLL,3733.31040,N,12712.32634,E,054517.00,A,A*6E
$GPRMC,054518.00,A,3733.31114,N,12712.32411,E,8.216,280.61,180524,,,A*69
$GPVTG,280.61,T,,M,8.216,N,15.216,K,A*0C
$GPGGA,054518.00,3733.31114,N,12712.32411,E,1,06,1.21,29.9,M,18.9,M,,*67
$GPGSA,A,3,19,04,06,11,22,20,,,,,,,2.19,1.21,1.83*08
$GPGSV,3,1,10,04,28,071,22,06,63,337,31,09,,,22,11,35,287,39*4C
$GPGSV,3,2,10,12,,,38,17,,,37,19,83,105,35,20,22,234,19*7D
$GPGSV,3,3,10,22,24,197,20,50,46,180,*7D
$GPGLL,3733.31114,N,12712.32411,E,054518.00,A,A*64
$GPRMC,054519.00,A,3733.31159,N,12712.32080,E,10.209,279.46,180524,,,A*59
$GPVTG,279.46,T,,M,10.209,N,18.907,K,A*3E
$GPGGA,054519.00,3733.31159,N,12712.32080,E,1,06,1.21,28.9,M,18.9,M,,*62
$GPGSA,A,3,19,04,06,11,22,20,,,,,,,2.19,1.21,1.83*08
$GPGSV,3,1,10,04,28,071,20,06,63,337,30,09,,,25,11,35,287,33*42
$GPGSV,3,2,10,12,,,34,17,,,36,19,83,105,31,20,22,234,16*7B
$GPGSV,3,3,10,22,24,197,20,50,46,180,*7D
$GPGLL,3733.31159,N,12712.32080,E,054519.00,A,A*60
$GPRMC,054520.00,A,3733.31277,N,12712.31744,E,10.927,287.50,180524,,,A*51
$GPVTG,287.50,T,,M,10.927,N,20.236,K,A*3D
$GPGGA,054520.00,3733.31277,N,12712.31744,E,1,06,1.21,27.6,M,18.9,M,,*6B
$GPGSA,A,3,19,04,06,11,22,20,,,,,,,2.19,1.21,1.83*08
$GPGSV,3,1,10,04,28,071,18,06,63,337,29,09,,,26,11,35,287,33*42
$GPGSV,3,2,10,12,,,30,17,,,34,19,83,105,34,20,22,234,14*7A
$GPGSV,3,3,10,22,24,197,20,50,46,180,*7D
$GPGLL,3733.31277,N,12712.31744,E,054520.00,A,A*69
$GPRMC,054521.00,A,3733.31416,N,12712.31417,E,11.461,291.73,180524,,,A*5C
$GPVTG,291.73,T,,M,11.461,N,21.226,K,A*35
$GPGGA,054521.00,3733.31416,N,12712.31417,E,1,06,1.21,25.6,M,18.9,M,,*6C
$GPGSA,A,3,19,04,06,11,22,20,,,,,,,2.19,1.21,1.83*08
$GPGSV,3,1,10,04,28,071,19,06,63,337,29,09,,,26,11,35,287,29*48
$GPGSV,3,2,10,12,,,29,17,,,35,19,83,105,35,20,22,234,15*73
$GPGSV,3,3,10,22,24,197,20,50,46,180,*7D
$GPGLL,3733.31416,N,12712.31417,E,054521.00,A,A*6C
$GPRMC,054522.00,A,3733.31539,N,12712.30986,E,12.914,291.30,180524,,,A*5C
$GPVTG,291.30,T,,M,12.914,N,23.918,K,A*3A
$GPGGA,054522.00,3733.31539,N,12712.30986,E,1,06,1.21,25.1,M,18.9,M,,*60
$GPGSA,A,3,19,04,06,11,22,20,,,,,,,2.19,1.21,1.83*08
$GPGSV,3,1,10,04,28,071,29,06,63,337,30,09,,,27,11,35,287,31*4B
$GPGSV,3,2,10,12,,,32,17,,,34,19,83,105,31,20,22,234,15*7C
$GPGSV,3,3,10,22,24,197,21,50,46,180,*7C
$GPGLL,3733.31539,N,12712.30986,E,054522.00,A,A*67
$GPRMC,054523.00,A,3733.31678,N,12712.30536,E,13.602,291.01,180524,,,A*57
$GPVTG,291.01,T,,M,13.602,N,25.191,K,A*3E
$GPGGA,054523.00,3733.31678,N,12712.30536,E,1,06,1.21,24.7,M,18.9,M,,*67
$GPGSA,A,3,19,04,06,11,22,20,,,,,,,2.19,1.21,1.83*08
$GPGSV,3,1,10,04,28,071,28,06,63,337,25,09,,,26,11,35,287,26*49
$GPGSV,3,2,10,12,,,32,17,,,33,19,83,105,31,20,22,234,17*79
$GPGSV,3,3,10,22,24,197,20,50,46,180,*7D
$GPGLL,3733.31678,N,12712.30536,E,054523.00,A,A*67
$GPRMC,054524.00,A,3733.31861,N,12712.30049,E,15.269,293.65,180524,,,A*54
$GPVTG,293.65,T,,M,15.269,N,28.278,K,A*38
$GPGGA,054524.00,3733.31861,N,12712.30049,E,1,06,1.21,24.4,M,18.9,M,,*68
$GPGSA,A,3,19,04,06,11,22,20,,,,,,,2.19,1.21,1.83*08
$GPGSV,3,1,10,04,28,071,32,06,63,337,30,09,,,26,11,35,287,32*43
$GPGSV,3,2,10,12,,,33,17,,,39,19,83,105,37,20,22,234,26*76
$GPGSV,3,3,10,22,24,197,21,50,46,180,*7C
$GPGLL,3733.31861,N,12712.30049,E,054524.00,A,A*6B
$GPRMC,054525.00,A,3733.32112,N,12712.29535,E,17.137,300.00,180524,,,A*5F
$GPVTG,300.00,T,,M,17.137,N,31.739,K,A*32
$GPGGA,054525.00,3733.32112,N,12712.29535,E,1,06,1.21,23.8,M,18.9,M,,*6A
$GPGSA,A,3,19,04,06,11,22,20,,,,,,,2.19,1.21,1.83*08
$GPGSV,3,1,10,04,28,071,27,06,63,337,31,09,,,27,11,35,287,30*45
$GPGSV,3,2,10,12,,,33,17,,,37,19,83,105,35,20,22,234,23*7F
$GPGSV,3,3,10,22,24,197,20,50,46,180,*7D
$GPGLL,3733.32112,N,12712.29535,E,054525.00,A,A*62
$GPRMC,054526.00,A,3733.32315,N,12712.28965,E,17.270,295.20,180524,,,A*5E
$GPVTG,295.20,T,,M,17.270,N,31.983,K,A*32
$GPGGA,054526.00,3733.32315,N,12712.28965,E,1,06,1.21,23.6,M,18.9,M,,*6A
$GPGSA,A,3,19,04,06,11,22,20,,,,,,,2.19,1.21,1.83*08
$GPGSV,3,1,10,04,28,071,32,06,63,337,32,09,,,28,11,35,287,30*4D
$GPGSV,3,2,10,12,,,35,17,,,38,19,83,105,35,20,22,234,18*7E
$GPGSV,3,3,10,22,24,197,18,50,46,180,*76
$GPGLL,3733.32315,N,12712.28965,E,054526.00,A,A*6C
$GPRMC,054527.00,A,3733.32436,N,12712.28420,E,16.519,283.49,180524,,,A*54
$GPVTG,283.49,T,,M,16.519,N,30.594,K,A*38
$GPGGA,054527.00,3733.32436,N,12712.28420,E,1,06,1.21,21.4,M,18.9,M,,*61
$GPGSA,A,3,19,04,06,11,22,20,,,,,,,2.19,1.21,1.83*08
$GPGSV,3,1,10,04,28,071,29,06,63,337,31,09,,,32,11,35,287,30*4F
$GPGSV,3,2,10,12,,,40,17,,,41,19,83,105,39,20,22,234,18*7E
$GPGSV,3,3,10,22,24,197,19,50,46,180,*77
$GPGLL,3733.32436,N,12712.28420,E,054527.00,A,A*67
$GPRMC,054528.00,A,3733.32587,N,12712.27853,E,17.139,286.69,180524,,,A*57
$GPVTG,286.69,T,,M,17.139,N,31.741,K,A*33
$GPGGA,054528.00,3733.32587,N,12712.27853,E,1,06,1.21,19.6,M,18.9,M,,*6B
$GPGSA,A,3,19,04,06,11,22,20,,,,,,,2.19,1.21,1.83*08
$GPGSV,3,1,10,04,28,071,30,06,63,337,32,09,,,29,11,35,287,29*46
$GPGSV,3,2,10,12,,,34,17,,,39,19,83,105,38,20,22,234,16*7D
$GPGSV,3,3,10,22,24,197,22,50,46,180,*7F
$GPGLL,3733.32587,N,12712.27853,E,054528.00,A,A*64
$GPRMC,054529.00,A,3733.32831,N,12712.27242,E,18.995,294.44,180524,,,A*51
$GPVTG,294.44,T,,M,18.995,N,35.179,K,A*37
$GPGGA,054529.00,3733.32831,N,12712.27242,E,1,06,1.21,19.5,M,18.9,M,,*63
$GPGSA,A,3,19,04,06,11,22,20,,,,,,,2.19,1.21,1.83*08
$GPGSV,3,1,10,04,28,071,29,06,63,337,33,09,,,30,11,35,287,30*4F
$GPGSV,3,2,10,12,,,34,17,,,39,19,83,105,37,20,22,234,28*7F
$GPGSV,3,3,10,22,24,197,23,50,46,180,*7E
$GPGLL,3733.32831,N,12712.27242,E,054529.00,A,A*6F
$GPRMC,054530.00,A,3733.33202,N,12712.26624,E,19.466,298.18,180524,,,A*52
$GPVTG,298.18,T,,M,19.466,N,36.051,K,A*3A
$GPGGA,054530.00,3733.33202,N,12712.26624,E,1,06,1.21,21.7,M,18.9,M,,*6C
$GPGSA,A,3,19,04,06,11,22,20,,,,,,,2.19,1.21,1.83*08
$GPGSV,3,1,10,04,28,071,28,06,63,337,36,09,,,34,11,35,287,34*4B
$GPGSV,3,2,10,12,,,39,17,,,40,19,83,105,39,20,22,234,33*78
$GPGSV,3,3,10,22,24,197,31,50,46,180,*7D
$GPGLL,3733.33202,N,12712.26624,E,054530.00,A,A*69
$GPRMC,054531.00,A,3733.33510,N,12712.26020,E,19.573,300.16,180524,,,A*5E
$GPVTG,300.16,T,,M,19.573,N,36.249,K,A*3A
$GPGGA,054531.00,3733.33510,N,12712.26020,E,1,06,1.21,20.8,M,18.9,M,,*65
$GPGSA,A,3,19,04,06,11,22,20,,,,,,,2.19,1.21,1.83*08
$GPGSV,3,1,10,04,28,071,26,06,63,337,36,09,,,32,11,35,287,34*43
$GPGSV,3,2,10,12,,,39,17,,,40,19,83,105,39,20,22,234,30*7B
$GPGSV,3,3,10,22,24,197,24,50,46,180,*79
$GPGLL,3733.33510,N,12712.26020,E,054531.00,A,A*6E
$GPRMC,054532.00,A,3733.33835,N,12712.25443,E,19.270,301.38,180524,,,A*5C
$GPVTG,301.38,T,,M,19.270,N,35.688,K,A*39
$GPGGA,054532.00,3733.33835,N,12712.25443,E,1,06,1.21,18.9,M,18.9,M,,*64
$GPGSA,A,3,19,04,06,11,22,20,,,,,,,2.19,1.21,1.82*09
$GPGSV,3,1,10,04,28,071,25,06,63,337,36,09,,,33,11,35,287,33*46
$GPGSV,3,2,10,12,,,40,17,,,41,19,83,105,39,20,22,234,18*7E
$GPGSV,3,3,10,22,24,197,22,50,46,180,*7F
$GPGLL,3733.33835,N,12712.25443,E,054532.00,A,A*65
$GPRMC,054533.00,A,3733.34264,N,12712.24713,E,20.324,301.97,180524,,,A*5C
$GPVTG,301.97,T,,M,20.324,N,37.640,K,A*30
$GPGGA,054533.00,3733.34264,N,12712.24713,E,1,07,2.00,22.2,M,18.9,M,,*68
$GPGSA,A,3,19,04,06,17,11,22,20,,,,,,3.02,2.00,2.25*0A
$GPGSV,3,1,10,04,28,071,34,06,63,337,36,09,,,33,11,35,287,34*41
$GPGSV,3,2,10,12,,,37,17,56,131,42,19,83,105,40,20,22,234,20*48
$GPGSV,3,3,10,22,24,197,21,50,46,180,*7C
$GPGLL,3733.34264,N,12712.24713,E,054533.00,A,A*6A
$GPRMC,054534.00,A,3733.34650,N,12712.24079,E,20.312,304.19,180524,,,A*55
$GPVTG,304.19,T,,M,20.312,N,37.617,K,A*34
$GPGGA,054534.00,3733.34650,N,12712.24079,E,1,06,1.39,22.8,M,18.9,M,,*65
$GPGSA,A,3,19,04,06,17,11,20,,,,,,,2.21,1.39,1.72*02
$GPGSV,3,1,10,04,28,071,34,06,63,337,35,09,,,33,11,35,287,34*42
$GPGSV,3,2,10,12,,,39,17,56,131,42,19,83,105,40,20,22,234,23*45
$GPGSV,3,3,10,22,24,197,,50,46,180,*7F
$GPGLL,3733.34650,N,12712.24079,E,054534.00,A,A*65
$GPRMC,054535.00,A,3733.34980,N,12712.23407,E,20.692,298.94,180524,,,A*50
$GPVTG,298.94,T,,M,20.692,N,38.322,K,A*34
$GPGGA,054535.00,3733.34980,N,12712.23407,E,1,07,1.09,24.9,M,18.9,M,,*69
$GPGSA,A,3,19,04,06,17,11,22,20,,,,,,2.00,1.09,1.68*09
$GPGSV,3,1,10,04,28,071,36,06,63,337,34,09,,,33,11,35,287,34*41
$GPGSV,3,2,10,12,,,38,17,56,131,42,19,83,105,40,20,22,234,35*43
$GPGSV,3,3,10,22,24,197,32,50,46,180,*7E
$GPGLL,3733.34980,N,12712.23407,E,054535.00,A,A*6C
$GPRMC,054536.00,A,3733.35319,N,12712.22762,E,20.636,300.42,180524,,,A*5C
$GPVTG,300.42,T,,M,20.636,N,38.218,K,A*39
$GPGGA,054536.00,3733.35319,N,12712.22762,E,1,07,1.09,25.8,M,18.9,M,,*60
$GPGSA,A,3,19,04,06,17,11,22,20,,,,,,2.00,1.09,1.68*09
$GPGSV,3,1,10,04,28,070,31,06,63,337,35,09,,,33,11,35,287,35*47
$GPGSV,3,2,10,12,,,41,17,56,131,43,19,83,105,40,20,22,234,38*41
$GPGSV,3,3,10,22,24,197,26,50,46,180,*7B
$GPGLL,3733.35319,N,12712.22762,E,054536.00,A,A*65
$GPRMC,054537.00,A,3733.35655,N,12712.22156,E,20.268,302.25,180524,,,A*5D
$GPVTG,302.25,T,,M,20.268,N,37.536,K,A*31
$GPGGA,054537.00,3733.35655,N,12712.22156,E,1,07,4.04,26.4,M,18.9,M,,*6A
$GPGSA,A,3,19,04,06,17,11,22,20,,,,,,8.03,4.04,6.94*0C
$GPGSV,3,1,10,04,28,070,25,06,63,337,35,09,,,34,11,35,287,34*44
$GPGSV,3,2,10,12,,,36,17,56,131,42,19,83,105,41,20,22,234,27*4F
$GPGSV,3,3,10,22,24,197,23,50,46,180,*7E
$GPGLL,3733.35655,N,12712.22156,E,054537.00,A,A*68
$GPRMC,054538.00,A,3733.35965,N,12712.21548,E,19.931,297.87,180524,,,A*5E
$GPVTG,297.87,T,,M,19.931,N,36.913,K,A*33
$GPGGA,054538.00,3733.35965,N,12712.21548,E,1,06,4.03,27.2,M,18.9,M,,*60
$GPGSA,A,3,19,06,17,11,22,20,,,,,,,8.02,4.03,6.93*09
$GPGSV,3,1,10,04,28,070,,06,63,337,35,09,,,34,11,35,287,34*43
$GPGSV,3,2,10,12,,,37,17,56,131,42,19,83,105,41,20,22,234,30*48
$GPGSV,3,3,10,22,24,197,29,50,46,180,*74
$GPGLL,3733.35965,N,12712.21548,E,054538.00,A,A*63
$GPRMC,054539.00,A,3733.36301,N,12712.20987,E,19.543,299.48,180524,,,A*5E
$GPVTG,299.48,T,,M,19.543,N,36.193,K,A*37
$GPGGA,054539.00,3733.36301,N,12712.20987,E,1,06,4.03,28.1,M,18.9,M,,*68
$GPGSA,A,3,19,06,17,11,22,20,,,,,,,8.02,4.03,6.93*09
$GPGSV,3,1,10,04,28,070,24,06,63,337,35,09,,,33,11,35,287,37*41
$GPGSV,3,2,10,12,,,34,17,56,131,42,19,83,105,39,20,22,234,30*44
$GPGSV,3,3,10,22,24,197,33,50,46,180,*7F
$GPGLL,3733.36301,N,12712.20987,E,054539.00,A,A*67
$GPRMC,054540.00,A,3733.36578,N,12712.20429,E,18.517,298.24,180524,,,A*5A
$GPVTG,298.24,T,,M,18.517,N,34.294,K,A*3A
$GPGGA,054540.00,3733.36578,N,12712.20429,E,1,06,4.03,28.2,M,18.9,M,,*64
$GPGSA,A,3,19,06,17,11,22,20,,,,,,,8.01,4.03,6.93*0A
$GPGSV,3,1,10,04,28,070,23,06,63,337,36,09,,,33,11,35,287,40*45
$GPGSV,3,2,10,12,,,39,17,56,131,41,19,83,106,39,20,22,234,28*40
$GPGSV,3,3,10,22,24,197,22,50,46,180,*7F
$GPGLL,3733.36578,N,12712.20429,E,054540.00,A,A*68
$GPRMC,054541.00,A,3733.36835,N,12712.19885,E,17.531,291.90,180524,,,A*52
$GPVTG,291.90,T,,M,17.531,N,32.467,K,A*3B
$GPGGA,054541.00,3733.36835,N,12712.19885,E,1,07,1.09,27.2,M,18.9,M,,*60
$GPGSA,A,3,19,04,06,17,11,22,20,,,,,,2.00,1.09,1.68*09
$GPGSV,3,1,10,04,28,070,25,06,63,337,39,09,,,33,11,35,287,38*43
$GPGSV,3,2,10,12,,,41,17,56,131,38,19,83,106,39,20,22,234,32*4A
$GPGSV,3,3,10,22,24,197,22,50,46,180,35*79
$GPGLL,3733.36835,N,12712.19885,E,054541.00,A,A*6D
$GPRMC,054542.00,A,3733.36950,N,12712.19283,E,17.317,285.71,180524,,,A*57
$GPVTG,285.71,T,,M,17.317,N,32.071,K,A*30
$GPGGA,054542.00,3733.36950,N,12712.19283,E,1,07,1.09,27.8,M,18.9,M,,*67
$GPGSA,A,3,19,04,06,17,11,22,20,,,,,,2.00,1.09,1.68*09
$GPGSV,3,1,10,04,28,070,34,06,63,337,41,09,,,36,11,35,287,40*46
$GPGSV,3,2,10,12,,,36,17,56,131,34,19,83,106,41,20,22,234,29*43
$GPGSV,3,3,10,22,24,197,23,50,46,180,28*74
$GPGLL,3733.36950,N,12712.19283,E,054542.00,A,A*60
$GPRMC,054543.00,A,3733.37028,N,12712.18650,E,17.446,281.10,180524,,,A*5A
$GPVTG,281.10,T,,M,17.446,N,32.310,K,A*34
$GPGGA,054543.00,3733.37028,N,12712.18650,E,1,07,1.09,28.6,M,18.9,M,,*6B
$GPGSA,A,3,19,04,06,17,11,22,20,,,,,,2.00,1.09,1.68*09
$GPGSV,3,1,10,04,28,070,34,06,63,337,40,09,,,28,11,35,287,38*47
$GPGSV,3,2,10,12,,,32,17,56,131,24,19,83,106,41,20,22,234,36*48
$GPGSV,3,3,10,22,23,197,23,50,46,180,33*79
$GPGLL,3733.37028,N,12712.18650,E,054543.00,A,A*6D
$GPRMC,054544.00,A,3733.37092,N,12712.18053,E,17.072,279.59,180524,,,A*50
$GPVTG,279.59,T,,M,17.072,N,31.618,K,A*33
$GPGGA,054544.00,3733.37092,N,12712.18053,E,1,07,1.09,28.8,M,18.9,M,,*66
$GPGSA,A,3,19,04,06,17,11,22,20,,,,,,2.00,1.09,1.68*09
$GPGSV,3,1,10,04,28,070,31,06,63,337,41,09,,,29,11,35,287,36*4C
$GPGSV,3,2,10,12,,,27,17,56,131,23,19,83,106,42,20,22,234,36*48
$GPGSV,3,3,10,22,23,197,21,50,46,180,32*7A
$GPGLL,3733.37092,N,12712.18053,E,054544.00,A,A*6E
$GPRMC,054545.00,A,3733.37194,N,12712.17458,E,16.871,285.45,180524,,,A*52
$GPVTG,285.45,T,,M,16.871,N,31.245,K,A*3B
$GPGGA,054545.00,3733.37194,N,12712.17458,E,1,07,1.09,28.9,M,18.9,M,,*61
$GPGSA,A,3,19,04,06,17,11,22,20,,,,,,2.00,1.09,1.68*09
$GPGSV,3,1,10,04,28,070,34,06,63,337,41,09,,,39,11,35,287,41*48
$GPGSV,3,2,10,12,,,34,17,56,131,35,19,83,106,43,20,22,234,39*43
$GPGSV,3,3,10,22,23,197,20,50,46,180,32*7B
$GPGLL,3733.37194,N,12712.17458,E,054545.00,A,A*68
$GPRMC,054546.00,A,3733.37364,N,12712.16918,E,16.829,291.77,180524,,,A*5D
$GPVTG,291.77,T,,M,16.829,N,31.167,K,A*31
$GPGGA,054546.00,3733.37364,N,12712.16918,E,1,07,1.15,28.4,M,18.9,M,,*67
$GPGSA,A,3,19,04,06,17,11,22,20,,,,,,2.06,1.15,1.71*0A
$GPGSV,3,1,10,04,28,070,25,06,63,337,39,09,,,32,11,35,287,41*4C
$GPGSV,3,2,10,12,,,43,17,56,131,39,19,83,106,42,20,22,234,35*42
$GPGSV,3,3,10,22,23,197,21,50,46,180,32*7A
$GPGLL,3733.37364,N,12712.16918,E,054546.00,A,A*6E
$GPRMC,054547.00,A,3733.37577,N,12712.16382,E,16.815,295.59,180524,,,A*56
$GPVTG,295.59,T,,M,16.815,N,31.142,K,A*31
$GPGGA,054547.00,3733.37577,N,12712.16382,E,1,07,1.09,28.8,M,18.9,M,,*6A
$GPGSA,A,3,19,04,06,17,11,22,20,,,,,,2.00,1.09,1.68*09
$GPGSV,3,1,10,04,28,070,30,06,63,337,38,09,,,29,11,35,287,42*40
$GPGSV,3,2,10,12,,,44,17,56,131,40,19,83,106,41,20,22,234,28*44
$GPGSV,3,3,10,22,23,197,33,50,46,180,31*7A
$GPGLL,3733.37577,N,12712.16382,E,054547.00,A,A*62
$GPRMC,054548.00,A,3733.37807,N,12712.15878,E,16.446,298.14,180524,,,A*50
$GPVTG,298.14,T,,M,16.446,N,30.458,K,A*30
$GPGGA,054548.00,3733.37807,N,12712.15878,E,1,07,1.09,28.9,M,18.9,M,,*63
$GPGSA,A,3,19,04,06,17,11,22,20,,,,,,2.00,1.09,1.68*09
$GPGSV,3,1,10,04,28,070,21,06,63,337,37,09,,,32,11,35,287,41*46
$GPGSV,3,2,10,12,,,42,17,56,131,41,19,83,106,39,20,22,234,31*44
$GPGSV,3,3,10,22,23,197,28,50,46,180,33*72
$GPGLL,3733.37807,N,12712.15878,E,054548.00,A,A*6A
$GPRMC,054549.00,A,3733.38020,N,12712.15382,E,16.313,296.77,180524,,,A*51
$GPVTG,296.77,T,,M,16.313,N,30.211,K,A*37
$GPGGA,054549.00,3733.38020,N,12712.15382,E,1,07,1.09,28.4,M,18.9,M,,*63
$GPGSA,A,3,19,04,06,17,11,22,20,,,,,,2.00,1.09,1.68*09
$GPGSV,3,1,10,04,28,070,29,06,63,337,36,09,,,29,11,35,287,43*47
$GPGSV,3,2,10,12,,,37,17,56,131,41,19,83,106,40,20,22,234,23*4B
$GPGSV,3,3,10,22,23,197,16,50,46,180,27*7A
$GPGLL,3733.38020,N,12712.15382,E,054549.00,A,A*67
$GPRMC,054550.00,A,3733.38217,N,12712.14871,E,16.183,294.10,180524,,,A*51
$GPVTG,294.10,T,,M,16.183,N,29.970,K,A*3B
$GPGGA,054550.00,3733.38217,N,12712.14871,E,1,07,1.09,28.3,M,18.9,M,,*6C
$GPGSA,A,3,19,04,06,17,11,22,20,,,,,,2.00,1.09,1.68*09
$GPGSV,3,1,10,04,28,070,22,06,63,337,37,09,,,34,11,35,287,38*4D
$GPGSV,3,2,10,12,,,41,17,56,131,41,19,83,106,40,20,22,234,23*4A
$GPGSV,3,3,10,22,23,197,18,50,46,180,*71
$GPGLL,3733.38217,N,12712.14871,E,054550.00,A,A*6F
$GPRMC,054551.00,A,3733.38402,N,12712.14356,E,16.176,292.66,180524,,,A*51
$GPVTG,292.66,T,,M,16.176,N,29.957,K,A*33
$GPGGA,054551.00,3733.38402,N,12712.14356,E,1,07,1.09,28.4,M,18.9,M,,*66
$GPGSA,A,3,19,04,06,17,11,22,20,,,,,,2.00,1.09,1.68*09
$GPGSV,3,1,10,04,28,070,25,06,63,337,36,09,,,34,11,35,287,39*4A
$GPGSV,3,2,10,12,,,34,17,56,131,39,19,83,106,40,20,22,234,25*41
$GPGSV,3,3,10,22,23,197,30,50,46,180,*7B
$GPGLL,3733.38402,N,12712.14356,E,054551.00,A,A*62
$GPRMC,054552.00,A,3733.38666,N,12712.13894,E,16.412,306.39,180524,,,A*51
$GPVTG,306.39,T,,M,16.412,N,30.394,K,A*3F
$GPGGA,054552.00,3733.38666,N,12712.13894,E,1,07,1.09,27.9,M,18.9,M,,*65
$GPGSA,A,3,19,04,06,17,11,22,20,,,,,,2.00,1.09,1.68*09
$GPGSV,3,1,10,04,28,070,25,06,63,337,35,09,,,26,11,35,287,36*45
$GPGSV,3,2,10,12,,,38,17,56,131,39,19,83,106,39,20,22,234,24*42
$GPGSV,3,3,10,22,23,197,30,50,46,180,*7B
$GPGLL,3733.38666,N,12712.13894,E,054552.00,A,A*63
$GPRMC,054553.00,A,3733.38839,N,12712.13431,E,14.520,297.63,180524,,,A*53
$GPVTG,297.63,T,,M,14.520,N,26.891,K,A*32
$GPGGA,054553.00,3733.38839,N,12712.13431,E,1,07,1.09,27.6,M,18.9,M,,*6C
$GPGSA,A,3,19,04,06,17,11,22,20,,,,,,2.00,1.09,1.68*09
$GPGSV,3,1,10,04,28,070,26,06,63,337,40,09,,,35,11,35,287,38*48
$GPGSV,3,2,10,12,,,39,17,56,131,39,19,83,106,40,20,22,234,22*4B
$GPGSV,3,3,10,22,23,197,23,50,46,180,*79
$GPGLL,3733.38839,N,12712.13431,E,054553.00,A,A*65
$GPRMC,054554.00,A,3733.38957,N,12712.13014,E,11.867,294.08,180524,,,A*5B
$GPVTG,294.08,T,,M,11.867,N,21.978,K,A*36
$GPGGA,054554.00,3733.38957,N,12712.13014,E,1,07,1.09,27.6,M,18.9,M,,*61
$GPGSA,A,3,19,04,06,17,11,22,20,,,,,,2.00,1.09,1.68*09
$GPGSV,3,1,10,04,28,070,26,06,63,337,42,09,,,34,11,35,287,39*4A
$GPGSV,3,2,10,12,,,42,17,56,131,39,19,83,106,39,20,22,234,29*42
$GPGSV,3,3,10,22,23,197,20,50,46,180,*7A
$GPGLL,3733.38957,N,12712.13014,E,054554.00,A,A*68
$GPRMC,054555.00,A,3733.39011,N,12712.12630,E,8.818,294.73,180524,,,A*6D
$GPVTG,294.73,T,,M,8.818,N,16.330,K,A*08
$GPGGA,054555.00,3733.39011,N,12712.12630,E,1,07,1.09,29.4,M,18.9,M,,*67
$GPGSA,A,3,19,04,06,17,11,22,20,,,,,,2.00,1.09,1.68*09
$GPGSV,3,1,10,04,28,070,32,06,63,337,36,09,,,32,11,35,287,45*41
$GPGSV,3,2,10,12,,,42,17,56,131,40,19,83,106,39,20,22,234,41*42
$GPGSV,3,3,10,22,23,197,21,50,46,180,*7B
$GPGLL,3733.39011,N,12712.12630,E,054555.00,A,A*62
$GPRMC,054556.00,A,3733.39103,N,12712.12379,E,6.987,304.41,180524,,,A*64
$GPVTG,304.41,T,,M,6.987,N,12.939,K,A*0F
$GPGGA,054556.00,3733.39103,N,12712.12379,E,1,07,1.09,30.4,M,18.9,M,,*66
$GPGSA,A,3,19,04,06,17,11,22,20,,,,,,2.00,1.09,1.68*09
$GPGSV,3,1,10,04,28,070,32,06,63,337,38,09,,,39,11,35,287,29*4E
$GPGSV,3,2,10,12,,,41,17,56,131,43,19,83,106,40,20,22,234,40*4D
$GPGSV,3,3,10,22,23,197,31,50,46,180,*7A
$GPGLL,3733.39103,N,12712.12379,E,054556.00,A,A*6B
$GPRMC,054557.00,A,3733.39208,N,12712.12206,E,6.109,314.58,180524,,,A*63
$GPVTG,314.58,T,,M,6.109,N,11.314,K,A*0E
$GPGGA,054557.00,3733.39208,N,12712.12206,E,1,07,1.09,31.2,M,18.9,M,,*61
$GPGSA,A,3,19,04,06,17,11,22,20,,,,,,2.00,1.09,1.68*09
$GPGSV,3,1,10,04,28,070,32,06,63,337,40,09,,,40,11,35,287,42*42
$GPGSV,3,2,10,12,,,35,17,56,131,39,19,83,106,40,20,22,234,31*45
$GPGSV,3,3,10,22,23,197,33,50,46,180,*78
$GPGLL,3733.39208,N,12712.12206,E,054557.00,A,A*6B
$GPRMC,054558.00,A,3733.39318,N,12712.12145,E,5.350,347.04,180524,,,A*6A
$GPVTG,347.04,T,,M,5.350,N,9.908,K,A*32
$GPGGA,054558.00,3733.39318,N,12712.12145,E,1,07,1.09,31.7,M,18.9,M,,*6F
$GPGSA,A,3,19,04,06,17,11,22,20,,,,,,2.00,1.09,1.68*09
$GPGSV,3,1,10,04,28,070,38,06,63,337,44,09,,,36,11,35,287,41*4E
$GPGSV,3,2,10,12,,,33,17,56,131,43,19,83,106,43,20,22,234,29*44
$GPGSV,3,3,10,22,23,197,34,50,46,180,*7F
$GPGLL,3733.39318,N,12712.12145,E,054558.00,A,A*60
$GPRMC,054559.00,A,3733.39405,N,12712.12146,E,4.870,0.72,180524,,,A*6A
$GPVTG,0.72,T,,M,4.870,N,9.020,K,A*38
$GPGGA,054559.00,3733.39405,N,12712.12146,E,1,07,1.09,32.3,M,18.9,M,,*61
$GPGSA,A,3,19,04,06,17,11,22,20,,,,,,2.00,1.09,1.68*09
$GPGSV,3,1,10,04,28,070,34,06,63,338,40,09,,,33,11,35,287,39*43
$GPGSV,3,2,10,12,,,43,17,56,131,42,19,83,106,40,20,22,234,28*40
$GPGSV,3,3,10,22,23,197,28,50,46,180,*72
$GPGLL,3733.39405,N,12712.12146,E,054559.00,A,A*69
$GPRMC,054600.00,A,3733.39541,N,12712.12225,E,6.001,17.74,180524,,,A*5E
$GPVTG,17.74,T,,M,6.001,N,11.114,K,A*3B
$GPGGA,054600.00,3733.39541,N,12712.12225,E,1,07,1.09,32.5,M,18.9,M,,*6F
$GPGSA,A,3,19,04,06,17,11,22,20,,,,,,2.00,1.09,1.68*09
$GPGSV,3,1,10,04,28,070,30,06,63,338,42,09,,,35,11,35,287,40*4D
$GPGSV,3,2,10,12,,,36,17,56,131,42,19,83,106,41,20,22,234,33*49
$GPGSV,3,3,10,22,23,197,37,50,46,180,*7C
$GPGLL,3733.39541,N,12712.12225,E,054600.00,A,A*61
$GPRMC,054601.00,A,3733.39709,N,12712.12336,E,7.352,25.25,180524,,,A*53
$GPVTG,25.25,T,,M,7.352,N,13.616,K,A*3D
$GPGGA,054601.00,3733.39709,N,12712.12336,E,1,07,1.18,32.6,M,18.9,M,,*60
$GPGSA,A,3,19,04,06,17,11,22,20,,,,,,2.05,1.18,1.68*0C
$GPGSV,3,1,10,04,28,070,30,06,63,338,43,09,,,34,11,35,287,35*4F
$GPGSV,3,2,10,12,,,33,17,55,131,41,19,83,106,42,20,22,234,27*4A
$GPGSV,3,3,10,22,23,197,34,50,46,180,34*78
$GPGLL,3733.39709,N,12712.12336,E,054601.00,A,A*6D
$GPRMC,054602.00,A,3733.39906,N,12712.12486,E,9.036,28.37,180524,,,A*5C
$GPVTG,28.37,T,,M,9.036,N,16.734,K,A*38
$GPGGA,054602.00,3733.39906,N,12712.12486,E,1,07,1.18,32.7,M,18.9,M,,*6F
$GPGSA,A,3,19,04,06,17,11,22,20,,,,,,2.05,1.18,1.68*0C
$GPGSV,3,1,10,04,28,070,33,06,63,338,44,09,,,23,11,35,287,38*40
$GPGSV,3,2,10,12,,,33,17,55,131,41,19,83,107,39,20,22,234,27*47
$GPGSV,3,3,10,22,23,197,30,50,46,180,34*7C
$GPGLL,3733.39906,N,12712.12486,E,054602.00,A,A*63
$GPRMC,054603.00,A,3733.40097,N,12712.12608,E,7.805,25.80,180524,,,A*51
$GPVTG,25.80,T,,M,7.805,N,14.455,K,A*39
$GPGGA,054603.00,3733.40097,N,12712.12608,E,1,07,1.09,33.1,M,18.9,M,,*62
$GPGSA,A,3,19,04,06,17,11,22,20,,,,,,2.00,1.09,1.68*09
$GPGSV,3,1,11,03,,,39,04,28,070,29,06,63,338,43,09,,,23*74
$GPGSV,3,2,11,11,35,287,38,12,,,28,17,55,131,40,19,83,107,39*4F
$GPGSV,3,3,11,20,22,234,26,22,23,197,34,50,46,180,36*48
$GPGLL,3733.40097,N,12712.12608,E,054603.00,A,A*69
$GPRMC,054604.00,A,3733.40296,N,12712.12729,E,8.468,23.82,180524,,,A*5B
$GPVTG,23.82,T,,M,8.468,N,15.684,K,A*3A
$GPGGA,054604.00,3733.40296,N,12712.12729,E,1,07,1.09,33.2,M,18.9,M,,*67
$GPGSA,A,3,19,04,06,17,11,22,20,,,,,,2.00,1.09,1.68*09
$GPGSV,3,1,11,03,,,34,04,28,070,32,06,63,338,42,09,,,30*70
$GPGSV,3,2,11,11,35,287,26,12,,,28,17,55,131,40,19,83,107,39*40
$GPGSV,3,3,11,20,22,234,25,22,23,197,32,50,46,180,36*4D
$GPGLL,3733.40296,N,12712.12729,E,054604.00,A,A*6F
$GPRMC,054605.00,A,3733.40513,N,12712.12860,E,8.637,23.33,180524,,,A*50
$GPVTG,23.33,T,,M,8.637,N,15.995,K,A*37
$GPGGA,054605.00,3733.40513,N,12712.12860,E,1,07,1.09,33.0,M,18.9,M,,*6C
$GPGSA,A,3,19,04,06,17,11,22,20,,,,,,2.00,1.09,1.68*09
$GPGSV,3,1,11,03,,,34,04,28,070,32,06,63,338,41,09,,,33*70
$GPGSV,3,2,11,11,35,287,27,12,,,26,17,55,131,42,19,83,107,39*4D
$GPGSV,3,3,11,20,22,234,31,22,23,197,35,50,46,180,39*40
$GPGLL,3733.40513,N,12712.12860,E,054605.00,A,A*66
$GPRMC,054606.00,A,3733.40705,N,12712.12954,E,8.558,24.16,180524,,,A*5A
$GPVTG,24.16,T,,M,8.558,N,15.850,K,A*35
$GPGGA,054606.00,3733.40705,N,12712.12954,E,1,07,1.09,33.9,M,18.9,M,,*65
$GPGSA,A,3,19,04,06,17,11,22,20,,,,,,2.00,1.09,1.68*09
$GPGSV,3,1,11,03,,,32,04,28,070,37,06,63,338,40,09,,,33*72
$GPGSV,3,2,11,11,35,287,26,12,,,26,17,55,131,39,19,83,107,41*4F
$GPGSV,3,3,11,20,22,234,24,22,23,197,35,50,46,180,35*48
$GPGLL,3733.40705,N,12712.12954,E,054606.00,A,A*66
$GPRMC,054607.00,A,3733.40923,N,12712.13098,E,8.938,27.06,180524,,,A*51
$GPVTG,27.06,T,,M,8.938,N,16.554,K,A*37
$GPGGA,054607.00,3733.40923,N,12712.13098,E,1,07,1.09,33.7,M,18.9,M,,*68
$GPGSA,A,3,19,04,06,17,11,22,20,,,,,,2.00,1.09,1.68*09
$GPGSV,3,1,11,03,,,39,04,28,070,35,06,63,338,43,09,,,37*7C
$GPGSV,3,2,11,11,35,287,35,12,,,32,17,55,131,39,19,83,107,39*47
$GPGSV,3,3,11,20,22,234,27,22,23,197,35,50,46,180,36*48
$GPGLL,3733.40923,N,12712.13098,E,054607.00,A,A*65
$GPRMC,054608.00,A,3733.41154,N,12712.13262,E,9.929,28.46,180524,,,A*5A
$GPVTG,28.46,T,,M,9.929,N,18.389,K,A*35
$GPGGA,054608.00,3733.41154,N,12712.13262,E,1,07,1.09,33.7,M,18.9,M,,*69
$GPGSA,A,3,19,04,06,17,11,22,20,,,,,,2.00,1.09,1.68*09
$GPGSV,3,1,11,03,,,40,04,28,070,35,06,63,338,44,09,,,37*75
$GPGSV,3,2,11,11,35,287,35,12,,,30,17,55,131,40,19,83,107,40*45
$GPGSV,3,3,11,20,22,234,25,22,23,197,35,50,46,180,36*4A
$GPGLL,3733.41154,N,12712.13262,E,054608.00,A,A*64
$GPRMC,054609.00,A,3733.41406,N,12712.13446,E,10.508,29.56,180524,,,A*6E
$GPVTG,29.56,T,,M,10.508,N,19.461,K,A*02
$GPGGA,054609.00,3733.41406,N,12712.13446,E,1,07,1.09,33.3,M,18.9,M,,*6E
$GPGSA,A,3,19,04,06,17,11,22,20,,,,,,2.00,1.09,1.68*09
$GPGSV,3,1,11,03,,,41,04,28,070,35,06,63,338,42,09,,,34*71
$GPGSV,3,2,11,11,35,287,31,12,,,32,17,55,131,41,19,83,107,40*42
$GPGSV,3,3,11,20,22,234,25,22,23,197,26,50,46,180,35*4B
$GPGLL,3733.41406,N,12712.13446,E,054609.00,A,A*67
$GPRMC,054610.00,A,3733.41656,N,12712.13650,E,10.660,31.43,180524,,,A*64
$GPVTG,31.43,T,,M,10.660,N,19.742,K,A*00
$GPGGA,054610.00,3733.41656,N,12712.13650,E,1,07,1.09,33.2,M,18.9,M,,*65
$GPGSA,A,3,19,04,06,17,11,22,20,,,,,,2.00,1.09,1.68*09
$GPGSV,3,1,11,03,,,41,04,28,070,26,06,63,338,41,09,,,32*76
$GPGSV,3,2,11,11,35,287,37,12,,,37,17,55,131,41,19,83,107,40*41
$GPGSV,3,3,11,20,22,234,26,22,23,197,27,50,46,180,34*48
$GPGLL,3733.41656,N,12712.13650,E,054610.00,A,A*6D
$GPRMC,054611.00,A,3733.41912,N,12712.13849,E,11.014,33.20,180524,,,A*6F
$GPVTG,33.20,T,,M,11.014,N,20.398,K,A*0A
$GPGGA,054611.00,3733.41912,N,12712.13849,E,1,07,1.09,32.5,M,18.9,M,,*6B
$GPGSA,A,3,19,04,06,17,11,22,20,,,,,,2.00,1.09,1.68*09
$GPGSV,3,1,11,03,,,39,04,28,070,27,06,63,338,41,09,,,35*7F
$GPGSV,3,2,11,11,35,287,39,12,,,35,17,55,131,41,19,83,107,40*4D
$GPGSV,3,3,11,20,22,234,31,22,23,197,33,50,46,180,32*4D
$GPGLL,3733.41912,N,12712.13849,E,054611.00,A,A*65
$GPRMC,054612.00,A,3733.42176,N,12712.14083,E,11.006,33.93,180524,,,A*67
$GPVTG,33.93,T,,M,11.006,N,20.383,K,A*0B
$GPGGA,054612.00,3733.42176,N,12712.14083,E,1,07,1.09,31.9,M,18.9,M,,*67
$GPGSA,A,3,19,04,06,17,11,22,20,,,,,,2.00,1.09,1.68*09
$GPGSV,3,1,11,03,,,36,04,28,070,38,06,63,338,42,09,,,23*7A
$GPGSV,3,2,11,11,35,287,41,12,,,31,17,55,131,40,19,83,107,40*47
$GPGSV,3,3,11,20,22,234,30,22,23,197,36,50,46,180,28*42
$GPGLL,3733.42176,N,12712.14083,E,054612.00,A,A*66
$GPRMC,054613.00,A,3733.42429,N,12712.14304,E,11.065,34.90,180524,,,A*64
$GPVTG,34.90,T,,M,11.065,N,20.492,K,A*0D
$GPGGA,054613.00,3733.42429,N,12712.14304,E,1,07,1.09,32.1,M,18.9,M,,*6E
$GPGSA,A,3,19,04,06,17,11,22,20,,,,,,2.00,1.09,1.68*09
$GPGSV,3,1,11,03,,,31,04,28,070,35,06,63,338,42,09,,,23*70
$GPGSV,3,2,11,11,35,287,36,12,,,32,17,55,131,41,19,83,107,40*45
$GPGSV,3,3,11,20,22,234,27,22,23,197,38,50,46,180,33*40
$GPGLL,3733.42429,N,12712.14304,E,054613.00,A,A*64
$GPRMC,054614.00,A,3733.42632,N,12712.14510,E,9.716,39.70,180524,,,A*51
$GPVTG,39.70,T,,M,9.716,N,17.994,K,A*3B
$GPGGA,054614.00,3733.42632,N,12712.14510,E,1,07,1.09,32.7,M,18.9,M,,*64
$GPGSA,A,3,19,04,06,17,11,22,20,,,,,,2.00,1.09,1.68*09
$GPGSV,3,1,11,03,,,24,04,28,070,37,06,63,338,40,09,,,37*71
$GPGSV,3,2,11,11,35,287,33,12,,,36,17,55,131,39,19,83,107,41*4A
$GPGSV,3,3,11,20,22,234,22,22,23,197,38,50,46,180,34*42
$GPGLL,3733.42632,N,12712.14510,E,054614.00,A,A*68
$GPRMC,054615.00,A,3733.42748,N,12712.14725,E,8.073,55.13,180524,,,A*52
$GPVTG,55.13,T,,M,8.073,N,14.951,K,A*3B
$GPGGA,054615.00,3733.42748,N,12712.14725,E,1,07,1.09,33.4,M,18.9,M,,*6F
$GPGSA,A,3,19,04,06,17,11,22,20,,,,,,2.00,1.09,1.68*09
$GPGSV,3,1,11,03,,,23,04,28,070,42,06,63,338,40,09,,,30*73
$GPGSV,3,2,11,11,35,287,31,12,,,34,17,55,131,42,19,83,107,40*47
$GPGSV,3,3,11,20,22,234,34,22,23,197,34,50,46,180,36*4B
$GPGLL,3733.42748,N,12712.14725,E,054615.00,A,A*61
$GPRMC,054616.00,A,3733.42767,N,12712.14993,E,7.638,75.86,180524,,,A*57
$GPVTG,75.86,T,,M,7.638,N,14.145,K,A*3E
$GPGGA,054616.00,3733.42767,N,12712.14993,E,1,07,1.09,33.7,M,18.9,M,,*61
$GPGSA,A,3,19,04,06,17,11,22,20,,,,,,2.00,1.09,1.68*09
$GPGSV,3,1,11,03,,,22,04,28,070,31,06,63,338,38,09,,,43*7D
$GPGSV,3,2,11,11,35,287,30,12,,,30,17,55,131,38,19,83,107,41*4E
$GPGSV,3,3,11,20,22,234,37,22,23,197,30,50,46,180,28*43
$GPGLL,3733.42767,N,12712.14993,E,054616.00,A,A*6C
$GPRMC,054617.00,A,3733.42655,N,12712.15226,E,8.028,108.24,180524,,,A*69
$GPVTG,108.24,T,,M,8.028,N,14.868,K,A*03
$GPGGA,054617.00,3733.42655,N,12712.15226,E,1,07,1.15,34.3,M,18.9,M,,*6A
$GPGSA,A,3,19,04,06,17,11,22,20,,,,,,2.06,1.15,1.71*0A
$GPGSV,3,1,11,03,,,21,04,28,070,32,06,63,338,35,09,,,41*72
$GPGSV,3,2,11,11,35,287,36,12,,,28,17,55,131,45,19,83,107,39*44
$GPGSV,3,3,11,20,22,234,35,22,23,197,30,50,46,180,38*40
$GPGLL,3733.42655,N,12712.15226,E,054617.00,A,A*69
$GPRMC,054618.00,A,3733.42494,N,12712.15436,E,8.296,125.95,180524,,,A*6C
$GPVTG,125.95,T,,M,8.296,N,15.365,K,A*06
$GPGGA,054618.00,3733.42494,N,12712.15436,E,1,07,1.09,34.5,M,18.9,M,,*66
$GPGSA,A,3,19,04,06,17,11,22,20,,,,,,2.00,1.09,1.68*09
$GPGSV,3,1,11,03,,,23,04,28,070,32,06,63,338,43,09,,,39*7E
$GPGSV,3,2,11,11,35,287,36,12,,,33,17,55,131,44,19,83,107,40*41
$GPGSV,3,3,11,20,22,234,29,22,23,197,25,50,46,180,33*42
$GPGLL,3733.42494,N,12712.15436,E,054618.00,A,A*6E
$GPRMC,054619.00,A,3733.42248,N,12712.15596,E,10.275,146.64,180524,,,A*5E
$GPVTG,146.64,T,,M,10.275,N,19.028,K,A*3F
$GPGGA,054619.00,3733.42248,N,12712.15596,E,1,07,1.14,35.2,M,18.9,M,,*61
$GPGSA,A,3,19,04,06,17,11,22,20,,,,,,2.08,1.14,1.74*00
$GPGSV,3,1,11,03,,,23,04,28,070,37,06,63,338,42,09,,,43*77
$GPGSV,3,2,11,11,35,287,36,12,,,39,17,55,131,44,19,83,107,40*4B
$GPGSV,3,3,11,20,22,234,29,22,23,197,24,50,46,180,37*47
$GPGLL,3733.42248,N,12712.15596,E,054619.00,A,A*63
$GPRMC,054620.00,A,3733.41969,N,12712.15813,E,12.078,144.73,180524,,,A*56
$GPVTG,144.73,T,,M,12.078,N,22.368,K,A*39
$GPGGA,054620.00,3733.41969,N,12712.15813,E,1,07,1.14,35.6,M,18.9,M,,*64
$GPGSA,A,3,19,04,06,17,11,22,20,,,,,,2.08,1.14,1.74*00
$GPGSV,3,1,11,03,,,25,04,28,070,40,06,63,338,40,09,,,42*72
$GPGSV,3,2,11,11,35,287,31,12,,,36,17,55,131,43,19,83,107,39*4A
$GPGSV,3,3,11,20,22,234,25,22,23,197,23,50,46,180,37*4C
$GPGLL,3733.41969,N,12712.15813,E,054620.00,A,A*62
$GPRMC,054621.00,A,3733.41692,N,12712.16125,E,13.851,139.27,180524,,,A*5A
$GPVTG,139.27,T,,M,13.851,N,25.652,K,A*3B
$GPGGA,054621.00,3733.41692,N,12712.16125,E,1,07,1.09,35.9,M,18.9,M,,*62
$GPGSA,A,3,19,04,06,17,11,22,20,,,,,,2.00,1.09,1.68*09
$GPGSV,3,1,11,03,,,26,04,28,070,31,06,63,338,35,09,,,37*77
$GPGSV,3,2,11,11,35,287,22,12,,,33,17,55,131,42,19,83,107,40*42
$GPGSV,3,3,11,20,22,234,25,22,23,197,30,50,46,180,34*4D
$GPGLL,3733.41692,N,12712.16125,E,054621.00,A,A*67
$GPRMC,054622.00,A,3733.41400,N,12712.16484,E,14.417,136.03,180524,,,A*5E
$GPVTG,136.03,T,,M,14.417,N,26.701,K,A*3F
$GPGGA,054622.00,3733.41400,N,12712.16484,E,1,07,1.09,36.5,M,18.9,M,,*69
$GPGSA,A,3,19,04,06,17,11,22,20,,,,,,2.00,1.09,1.68*09
$GPGSV,3,1,11,03,,,23,04,28,070,35,06,63,338,39,09,,,35*78
$GPGSV,3,2,11,11,35,287,22,12,,,33,17,55,131,44,19,83,107,40*44
$GPGSV,3,3,11,20,22,234,25,22,23,197,24,50,46,180,35*49
$GPGLL,3733.41400,N,12712.16484,E,054622.00,A,A*63
$GPRMC,054623.00,A,3733.41111,N,12712.16858,E,14.825,136.04,180524,,,A*5D
$GPVTG,136.04,T,,M,14.825,N,27.457,K,A*34
$GPGGA,054623.00,3733.41111,N,12712.16858,E,1,07,1.09,36.9,M,18.9,M,,*6C
$GPGSA,A,3,19,04,06,17,11,22,20,,,,,,2.00,1.09,1.68*09
$GPGSV,3,1,11,03,,,24,04,28,070,30,06,63,338,37,09,,,35*74
$GPGSV,3,2,11,11,35,287,35,12,,,33,17,55,132,43,19,83,107,40*46
$GPGSV,3,3,11,20,22,234,32,22,23,197,32,50,46,180,32*4F
$GPGLL,3733.41111,N,12712.16858,E,054623.00,A,A*6A
$GPRMC,054624.00,A,3733.40839,N,12712.17275,E,15.170,130.03,180524,,,A*55
$GPVTG,130.03,T,,M,15.170,N,28.095,K,A*38
$GPGGA,054624.00,3733.40839,N,12712.17275,E,1,07,1.14,36.9,M,18.9,M,,*61
$GPGSA,A,3,19,04,06,17,11,22,20,,,,,,2.08,1.14,1.74*00
$GPGSV,3,1,11,03,,,24,04,28,070,30,06,63,338,38,09,,,38*76
$GPGSV,3,2,11,11,35,287,35,12,,,33,17,55,132,43,19,83,108,42*4B
$GPGSV,3,3,11,20,22,234,31,22,23,197,29,50,46,180,32*46
$GPGLL,3733.40839,N,12712.17275,E,054624.00,A,A*6B
$GPRMC,054625.00,A,3733.40581,N,12712.17701,E,14.966,128.79,180524,,,A*56
$GPVTG,128.79,T,,M,14.966,N,27.717,K,A*30
$GPGGA,054625.00,3733.40581,N,12712.17701,E,1,07,1.14,36.9,M,18.9,M,,*68
$GPGSA,A,3,19,04,06,17,11,22,20,,,,,,2.08,1.14,1.74*00
$GPGSV,3,1,11,03,,,24,04,28,070,31,06,63,338,38,09,,,36*79
$GPGSV,3,2,11,11,35,287,33,12,,,33,17,55,132,43,19,83,108,40*4F
$GPGSV,3,3,11,20,22,234,30,22,23,197,33,50,46,180,31*4F
$GPGLL,3733.40581,N,12712.17701,E,054625.00,A,A*62
$GPRMC,054626.00,A,3733.40327,N,12712.18119,E,14.652,129.17,180524,,,A*5E
$GPVTG,129.17,T,,M,14.652,N,27.136,K,A*34
$GPGGA,054626.00,3733.40327,N,12712.18119,E,1,07,1.14,37.4,M,18.9,M,,*6D
$GPGSA,A,3,19,04,06,17,11,22,20,,,,,,2.08,1.14,1.74*00
$GPGSV,3,1,11,03,,,25,04,28,070,26,06,63,338,37,09,,,35*72
$GPGSV,3,2,11,11,35,287,27,12,,,33,17,55,132,44,19,83,108,39*43
$GPGSV,3,3,11,20,22,234,26,22,23,197,33,50,46,180,37*4E
$GPGLL,3733.40327,N,12712.18119,E,054626.00,A,A*6B
$GPRMC,054627.00,A,3733.40077,N,12712.18524,E,14.112,128.59,180524,,,A*5B
$GPVTG,128.59,T,,M,14.112,N,26.136,K,A*3D
$GPGGA,054627.00,3733.40077,N,12712.18524,E,1,07,1.15,37.6,M,18.9,M,,*63
$GPGSA,A,3,19,04,06,17,11,22,20,,,,,,2.06,1.15,1.71*0A
$GPGSV,3,1,11,03,,,23,04,28,070,27,06,63,338,38,09,,,36*79
$GPGSV,3,2,11,11,35,287,35,12,,,31,17,55,132,45,19,83,108,39*43
$GPGSV,3,3,11,20,22,234,32,22,23,197,27,50,46,180,33*4A
$GPGLL,3733.40077,N,12712.18524,E,054627.00,A,A*66
$GPRMC,054628.00,A,3733.39818,N,12712.18900,E,13.999,128.25,180524,,,A*56
$GPVTG,128.25,T,,M,13.999,N,25.927,K,A*31
$GPGGA,054628.00,3733.39818,N,12712.18900,E,1,07,1.09,37.8,M,18.9,M,,*6A
$GPGSA,A,3,19,04,06,17,11,22,20,,,,,,2.00,1.09,1.68*09
$GPGSV,3,1,11,03,,,21,04,28,070,40,06,63,338,37,09,,,38*7B
$GPGSV,3,2,11,11,35,287,35,12,,,29,17,55,132,45,19,83,108,39*4A
$GPGSV,3,3,11,20,22,234,28,22,23,197,35,50,46,180,33*42
$GPGLL,3733.39818,N,12712.18900,E,054628.00,A,A*6C
$GPRMC,054629.00,A,3733.39564,N,12712.19284,E,14.377,127.96,180524,,,A*5D
$GPVTG,127.96,T,,M,14.377,N,26.627,K,A*37
$GPGGA,054629.00,3733.39564,N,12712.19284,E,1,07,1.09,37.8,M,18.9,M,,*6B
$GPGSA,A,3,19,04,06,17,11,22,20,,,,,,2.00,1.09,1.68*09
$GPGSV,3,1,11,03,,,28,04,28,070,34,06,63,338,37,09,,,37*7E
$GPGSV,3,2,11,11,35,287,36,12,,,28,17,55,132,45,19,83,108,40*46
$GPGSV,3,3,11,20,22,234,36,22,23,197,27,50,46,180,31*4C
$GPGLL,3733.39564,N,12712.19284,E,054629.00,A,A*6D
$GPRMC,054630.00,A,3733.39304,N,12712.19681,E,14.998,127.94,180524,,,A*5D
$GPVTG,127.94,T,,M,14.998,N,27.776,K,A*3A
$GPGGA,054630.00,3733.39304,N,12712.19681,E,1,07,1.15,37.6,M,18.9,M,,*61
$GPGSA,A,3,19,04,06,17,11,22,20,,,,,,2.06,1.15,1.71*0A
$GPGSV,3,1,11,03,,,21,04,28,070,30,06,63,338,37,09,,,39*7D
$GPGSV,3,2,11,11,35,287,38,12,,,27,17,55,132,46,19,83,108,40*44
$GPGSV,3,3,11,20,22,234,29,22,23,197,35,50,46,180,31*41
$GPGLL,3733.39304,N,12712.19681,E,054630.00,A,A*64
$GPRMC,054631.00,A,3733.39050,N,12712.20105,E,15.221,126.71,180524,,,A*5D
$GPVTG,126.71,T,,M,15.221,N,28.188,K,A*30
$GPGGA,054631.00,3733.39050,N,12712.20105,E,1,07,1.09,37.5,M,18.9,M,,*6D
$GPGSA,A,3,19,04,06,17,11,22,20,,,,,,2.00,1.09,1.68*09
$GPGSV,3,1,11,03,,,23,04,28,070,34,06,63,338,37,09,,,37*75
$GPGSV,3,2,11,11,35,287,36,12,,,26,17,55,132,47,19,83,108,40*4A
$GPGSV,3,3,11,20,22,234,28,22,23,197,38,50,46,180,30*4C
$GPGLL,3733.39050,N,12712.20105,E,054631.00,A,A*66
$GPRMC,054632.00,A,3733.38798,N,12712.20521,E,15.104,123.03,180524,,,A*5A
$GPVTG,123.03,T,,M,15.104,N,27.972,K,A*36
$GPGGA,054632.00,3733.38798,N,12712.20521,E,1,07,1.14,38.0,M,18.9,M,,*68
$GPGSA,A,3,19,04,06,17,11,22,20,,,,,,2.08,1.14,1.74*00
$GPGSV,3,1,11,03,,,25,04,28,070,42,06,63,338,34,09,,,37*71
$GPGSV,3,2,11,11,35,287,34,12,,,25,17,55,132,47,19,83,108,39*45
$GPGSV,3,3,11,20,22,234,26,22,23,197,30,50,46,180,30*4A
$GPGLL,3733.38798,N,12712.20521,E,054632.00,A,A*65
$GPRMC,054633.00,A,3733.38559,N,12712.20929,E,14.631,122.05,180524,,,A*57
$GPVTG,122.05,T,,M,14.631,N,27.096,K,A*32
$GPGGA,054633.00,3733.38559,N,12712.20929,E,1,08,1.05,38.5,M,18.9,M,,*68
$GPGSA,A,3,19,04,06,09,17,11,22,20,,,,,1.96,1.05,1.66*0E
$GPGSV,3,1,11,03,,,23,04,28,070,42,06,63,338,35,09,37,118,35*48
$GPGSV,3,2,11,11,35,287,36,12,,,26,17,55,132,47,19,83,108,41*4B
$GPGSV,3,3,11,20,22,234,30,22,23,197,37,50,46,180,34*4E
$GPGLL,3733.38559,N,12712.20929,E,054633.00,A,A*6F
$GPRMC,054634.00,A,3733.38342,N,12712.21292,E,13.093,121.36,180524,,,A*5C
$GPVTG,121.36,T,,M,13.093,N,24.248,K,A*3A
$GPGGA,054634.00,3733.38342,N,12712.21292,E,1,08,1.14,38.7,M,18.9,M,,*6B
$GPGSA,A,3,19,04,06,09,17,11,22,20,,,,,2.14,1.14,1.80*0F
$GPGSV,3,1,11,03,,,21,04,28,070,40,06,63,338,34,09,37,118,35*49
$GPGSV,3,2,11,11,35,287,38,12,,,27,17,55,132,47,19,83,108,40*45
$GPGSV,3,3,11,20,22,234,26,22,23,197,33,50,46,180,32*4B
$GPGLL,3733.38342,N,12712.21292,E,054634.00,A,A*6E
$GPRMC,054635.00,A,3733.38151,N,12712.21654,E,12.300,120.67,180524,,,A*5E
$GPVTG,120.67,T,,M,12.300,N,22.779,K,A*36
$GPGGA,054635.00,3733.38151,N,12712.21654,E,1,08,1.14,38.6,M,18.9,M,,*65
$GPGSA,A,3,19,04,06,09,17,11,22,20,,,,,2.14,1.14,1.80*0F
$GPGSV,3,1,11,03,,,17,04,28,070,44,06,63,338,36,09,37,118,39*46
$GPGSV,3,2,11,11,35,287,38,12,,,32,17,55,132,45,19,83,108,39*4D
$GPGSV,3,3,11,20,22,234,27,22,23,197,25,50,46,180,*4C
$GPGLL,3733.38151,N,12712.21654,E,054635.00,A,A*61
$GPRMC,054636.00,A,3733.37963,N,12712.22001,E,12.140,120.11,180524,,,A*59
$GPVTG,120.11,T,,M,12.140,N,22.484,K,A*30
$GPGGA,054636.00,3733.37963,N,12712.22001,E,1,07,1.14,38.9,M,18.9,M,,*65
$GPGSA,A,3,19,04,06,09,17,11,20,,,,,,2.14,1.14,1.80*0F
$GPGSV,3,1,11,03,,,17,04,28,070,45,06,63,338,33,09,37,118,35*4E
$GPGSV,3,2,11,11,35,287,37,12,,,31,17,55,132,46,19,83,108,39*42
$GPGSV,3,3,11,20,22,234,26,22,23,197,,50,46,180,30*49
$GPGLL,3733.37963,N,12712.22001,E,054636.00,A,A*61
$GPRMC,054637.00,A,3733.37783,N,12712.22363,E,12.295,119.06,180524,,,A*58
$GPVTG,119.06,T,,M,12.295,N,22.770,K,A*3F
$GPGGA,054637.00,3733.37783,N,12712.22363,E,1,07,1.14,39.0,M,18.9,M,,*6B
$GPGSA,A,3,19,04,06,09,17,11,20,,,,,,2.14,1.14,1.80*0F
$GPGSV,3,1,11,03,,,16,04,28,070,42,06,63,338,33,09,37,118,35*48
$GPGSV,3,2,11,11,35,287,35,12,,,32,17,55,132,46,19,83,108,39*43
$GPGSV,3,3,11,20,22,234,26,22,23,197,,50,46,180,28*40
$GPGLL,3733.37783,N,12712.22363,E,054637.00,A,A*67
$GPRMC,054638.00,A,3733.37599,N,12712.22752,E,13.252,118.52,180524,,,A*52
$GPVTG,118.52,T,,M,13.252,N,24.542,K,A*30
$GPGGA,054638.00,3733.37599,N,12712.22752,E,1,07,1.14,39.2,M,18.9,M,,*69
$GPGSA,A,3,19,04,06,09,17,11,20,,,,,,2.14,1.14,1.80*0F
$GPGSV,3,1,11,03,,,17,04,28,070,44,06,63,338,33,09,37,118,38*42
$GPGSV,3,2,11,11,35,287,36,12,,,33,17,55,132,46,19,83,108,39*41
$GPGSV,3,3,11,20,22,234,23,22,23,197,,50,46,180,32*4E
$GPGLL,3733.37599,N,12712.22752,E,054638.00,A,A*67
$GPRMC,054639.00,A,3733.37415,N,12712.23146,E,12.954,118.64,180524,,,A*5D
$GPVTG,118.64,T,,M,12.954,N,23.991,K,A*3C
$GPGGA,054639.00,3733.37415,N,12712.23146,E,1,07,1.14,39.2,M,18.9,M,,*6F
$GPGSA,A,3,19,04,06,09,17,11,20,,,,,,2.14,1.14,1.80*0F
$GPGSV,3,1,11,03,,,21,04,28,070,40,06,63,338,33,09,37,118,35*4E
$GPGSV,3,2,11,11,35,287,38,12,,,29,17,55,132,46,19,83,108,39*44
$GPGSV,3,3,11,20,22,234,23,22,23,197,,50,46,180,34*48
$GPGLL,3733.37415,N,12712.23146,E,054639.00,A,A*61
$GPRMC,054640.00,A,3733.37239,N,12712.23535,E,12.643,119.42,180524,,,A*57
$GPVTG,119.42,T,,M,12.643,N,23.415,K,A*31
$GPGGA,054640.00,3733.37239,N,12712.23535,E,1,07,1.14,39.2,M,18.9,M,,*69
$GPGSA,A,3,19,04,06,09,17,11,20,,,,,,2.14,1.14,1.80*0F
$GPGSV,3,1,11,03,,,25,04,28,070,28,06,63,338,32,09,37,118,36*46
$GPGSV,3,2,11,11,35,287,35,12,,,30,17,55,132,46,19,83,108,40*4F
$GPGSV,3,3,11,20,22,234,29,22,23,197,27,50,46,180,34*47
$GPGLL,3733.37239,N,12712.23535,E,054640.00,A,A*67
$GPRMC,054641.00,A,3733.37064,N,12712.23926,E,12.813,118.87,180524,,,A*51
$GPVTG,118.87,T,,M,12.813,N,23.729,K,A*3E
$GPGGA,054641.00,3733.37064,N,12712.23926,E,1,08,1.16,39.1,M,18.9,M,,*62
$GPGSA,A,3,19,04,06,09,17,11,22,20,,,,,2.01,1.16,1.64*03
$GPGSV,3,1,11,03,,,23,04,28,070,41,06,63,338,33,09,37,118,36*4E
$GPGSV,3,2,11,11,35,287,37,12,,,30,17,55,132,47,19,83,108,40*4C
$GPGSV,3,3,11,20,22,234,34,22,23,197,44,50,46,180,33*49
$GPGLL,3733.37064,N,12712.23926,E,054641.00,A,A*62
$GPRMC,054642.00,A,3733.36881,N,12712.24326,E,13.559,119.18,180524,,,A*58
$GPVTG,119.18,T,,M,13.559,N,25.110,K,A*31
$GPGGA,054642.00,3733.36881,N,12712.24326,E,1,08,1.04,39.1,M,18.9,M,,*6D
$GPGSA,A,3,19,04,06,09,17,11,22,20,,,,,1.93,1.04,1.63*0F
$GPGSV,3,1,11,03,,,20,04,28,070,33,06,63,338,33,09,37,118,34*4A
$GPGSV,3,2,11,11,35,287,36,12,,,30,17,55,132,46,19,83,108,40*4C
$GPGSV,3,3,11,20,22,234,31,22,23,197,29,50,46,180,32*46
$GPGLL,3733.36881,N,12712.24326,E,054642.00,A,A*6E
$GPRMC,054643.00,A,3733.36676,N,12712.24745,E,14.275,119.13,180524,,,A*5B
$GPVTG,119.13,T,,M,14.275,N,26.437,K,A*37
$GPGGA,054643.00,3733.36676,N,12712.24745,E,1,08,1.04,39.4,M,18.9,M,,*6E
$GPGSA,A,3,19,04,06,09,17,11,22,20,,,,,1.93,1.04,1.63*0F
$GPGSV,3,1,11,03,,,18,04,28,070,43,06,63,338,34,09,37,118,35*40
$GPGSV,3,2,11,11,35,287,36,12,,,29,17,55,132,45,19,83,108,40*47
$GPGSV,3,3,11,20,22,234,31,22,23,197,33,50,46,180,31*4E
$GPGLL,3733.36676,N,12712.24745,E,054643.00,A,A*68
$GPRMC,054644.00,A,3733.36476,N,12712.25188,E,14.686,119.02,180524,,,A*50
$GPVTG,119.02,T,,M,14.686,N,27.199,K,A*3F
$GPGGA,054644.00,3733.36476,N,12712.25188,E,1,08,1.14,39.3,M,18.9,M,,*6B
$GPGSA,A,3,19,04,06,09,17,11,22,20,,,,,2.14,1.14,1.80*0F
$GPGSV,3,1,11,03,,,18,04,28,070,32,06,63,338,34,09,37,118,35*46
$GPGSV,3,2,11,11,35,287,36,12,,,29,17,55,132,46,19,83,108,40*44
$GPGSV,3,3,11,20,22,234,30,22,23,197,39,50,46,180,30*44
$GPGLL,3733.36476,N,12712.25188,E,054644.00,A,A*6B
$GPRMC,054645.00,A,3733.36268,N,12712.25636,E,14.953,118.54,180524,,,A*5F
$GPVTG,118.54,T,,M,14.953,N,27.693,K,A*37
$GPGGA,054645.00,3733.36268,N,12712.25636,E,1,08,1.04,39.3,M,18.9,M,,*60
$GPGSA,A,3,19,04,06,09,17,11,22,20,,,,,1.93,1.04,1.63*0F
$GPGSV,3,1,11,03,,,20,04,28,070,39,06,63,338,34,09,37,118,36*45
$GPGSV,3,2,11,11,35,287,36,12,,,29,17,55,132,46,19,83,108,40*44
$GPGSV,3,3,11,20,22,234,31,22,23,197,40,50,46,180,29*43
$GPGLL,3733.36268,N,12712.25636,E,054645.00,A,A*61
$GPRMC,054646.00,A,3733.36074,N,12712.26110,E,15.316,119.20,180524,,,A*5B
$GPVTG,119.20,T,,M,15.316,N,28.366,K,A*3F
$GPGGA,054646.00,3733.36074,N,12712.26110,E,1,08,0.99,39.4,M,18.9,M,,*6E
$GPGSA,A,3,19,04,06,09,17,11,22,20,,,,,1.87,0.99,1.58*07
$GPGSV,3,1,11,03,,,29,04,28,070,40,06,63,338,34,09,37,117,36*4D
$GPGSV,3,2,11,11,35,287,37,12,,,29,17,55,132,46,19,83,108,39*4B
$GPGSV,3,3,11,20,22,234,29,22,23,197,28,50,46,180,28*45
$GPGLL,3733.36074,N,12712.26110,E,054646.00,A,A*6D
$GPRMC,054647.00,A,3733.35856,N,12712.26582,E,15.684,119.51,180524,,,A*56
$GPVTG,119.51,T,,M,15.684,N,29.047,K,A*36
$GPGGA,054647.00,3733.35856,N,12712.26582,E,1,08,1.14,39.4,M,18.9,M,,*6F
$GPGSA,A,3,19,04,06,09,17,11,22,20,,,,,2.14,1.14,1.80*0F
$GPGSV,3,1,11,03,,,29,04,28,070,20,06,63,338,34,09,37,117,36*4B
$GPGSV,3,2,11,11,35,287,34,12,,,29,17,55,132,46,19,83,108,41*47
$GPGSV,3,3,11,20,22,234,33,22,23,197,29,50,46,180,26*41
$GPGLL,3733.35856,N,12712.26582,E,054647.00,A,A*68
$GPRMC,054648.00,A,3733.35640,N,12712.27046,E,15.320,119.97,180524,,,A*5D
$GPVTG,119.97,T,,M,15.320,N,28.372,K,A*33
$GPGGA,054648.00,3733.35640,N,12712.27046,E,1,07,1.47,39.5,M,18.9,M,,*6D
$GPGSA,A,3,19,04,06,09,17,11,22,,,,,,2.51,1.47,2.04*05
$GPGSV,3,1,11,03,,,19,04,28,070,28,06,63,338,35,09,37,117,36*41
$GPGSV,3,2,11,11,35,287,37,12,,,29,17,55,132,46,19,83,108,40*45
$GPGSV,3,3,11,20,22,234,,22,23,197,33,50,46,180,*4E
$GPGLL,3733.35640,N,12712.27046,E,054648.00,A,A*62
$GPRMC,054649.00,A,3733.35434,N,12712.27503,E,14.936,119.20,180524,,,A*59
$GPVTG,119.20,T,,M,14.936,N,27.662,K,A*38
$GPGGA,054649.00,3733.35434,N,12712.27503,E,1,07,1.47,39.5,M,18.9,M,,*69
$GPGSA,A,3,19,04,06,09,17,11,22,,,,,,2.51,1.47,2.04*05
$GPGSV,3,1,11,03,,,17,04,28,070,27,06,63,338,34,09,37,117,36*41
$GPGSV,3,2,11,11,35,287,33,12,,,28,17,55,132,44,19,82,109,40*42
$GPGSV,3,3,11,20,22,234,22,22,23,197,33,50,46,180,*4E
$GPGLL,3733.35434,N,12712.27503,E,054649.00,A,A*66
$GPRMC,054650.00,A,3733.35243,N,12712.27949,E,14.295,118.12,180524,,,A*57
$GPVTG,118.12,T,,M,14.295,N,26.475,K,A*3F
$GPGGA,054650.00,3733.35243,N,12712.27949,E,1,08,1.16,39.4,M,18.9,M,,*6F
$GPGSA,A,3,19,04,06,09,17,11,22,20,,,,,2.01,1.16,1.65*02
$GPGSV,3,1,11,03,,,16,04,28,070,26,06,63,338,33,09,37,117,36*46
$GPGSV,3,2,11,11,35,287,30,12,,,27,17,55,132,43,19,82,109,39*47
$GPGSV,3,3,11,20,23,234,24,22,23,197,27,50,46,180,*4C
$GPGLL,3733.35243,N,12712.27949,E,054650.00,A,A*6A
$GPRMC,054651.00,A,3733.35064,N,12712.28390,E,14.129,115.67,180524,,,A*5B
$GPVTG,115.67,T,,M,14.129,N,26.168,K,A*3D
$GPGGA,054651.00,3733.35064,N,12712.28390,E,1,08,1.14,39.4,M,18.9,M,,*6A
$GPGSA,A,3,19,04,06,09,17,11,22,20,,,,,2.14,1.14,1.80*0F
$GPGSV,3,1,11,03,,,13,04,28,070,40,06,63,338,31,09,37,117,35*42
$GPGSV,3,2,11,11,35,287,29,12,,,25,17,55,132,43,19,82,109,39*4D
$GPGSV,3,3,11,20,23,234,25,22,23,197,32,50,46,180,*49
$GPGLL,3733.35064,N,12712.28390,E,054651.00,A,A*6D
$GPRMC,054652.00,A,3733.34918,N,12712.28847,E,14.106,111.31,180524,,,A*50
$GPVTG,111.31,T,,M,14.106,N,26.125,K,A*3E
$GPGGA,054652.00,3733.34918,N,12712.28847,E,1,08,0.99,39.7,M,18.9,M,,*6C
$GPGSA,A,3,19,04,06,09,17,11,22,20,,,,,1.87,0.99,1.58*07
$GPGSV,3,1,11,03,,,14,04,28,070,39,06,63,338,32,09,37,117,33*4E
$GPGSV,3,2,11,11,35,287,31,12,,,27,17,55,132,39,19,82,109,38*4A
$GPGSV,3,3,11,20,23,234,24,22,23,197,27,50,46,180,*4C
$GPGLL,3733.34918,N,12712.28847,E,054652.00,A,A*6C
$GPRMC,054653.00,A,3733.34785,N,12712.29320,E,14.318,108.72,180524,,,A*52
$GPVTG,108.72,T,,M,14.318,N,26.517,K,A*39
$GPGGA,054653.00,3733.34785,N,12712.29320,E,1,08,1.05,39.8,M,18.9,M,,*67
$GPGSA,A,3,19,04,06,09,17,11,22,20,,,,,1.96,1.05,1.66*0E
$GPGSV,3,1,11,03,,,14,04,28,070,37,06,63,338,28,09,37,117,36*4E
$GPGSV,3,2,11,11,35,287,30,12,,,31,17,55,132,40,19,82,109,39*43
$GPGSV,3,3,11,20,23,234,22,22,23,197,25,50,46,180,*48
$GPGLL,3733.34785,N,12712.29320,E,054653.00,A,A*6C
$GPRMC,054654.00,A,3733.34683,N,12712.29816,E,14.805,104.28,180524,,,A*58
$GPVTG,104.28,T,,M,14.805,N,27.419,K,A*33
$GPGGA,054654.00,3733.34683,N,12712.29816,E,1,07,1.05,39.6,M,18.9,M,,*68
$GPGSA,A,3,19,04,06,09,17,11,22,,,,,,1.96,1.05,1.66*0C
$GPGSV,3,1,11,03,,,14,04,28,070,39,06,63,338,36,09,37,117,33*4A
$GPGSV,3,2,11,11,35,287,23,12,,,26,17,55,132,39,19,82,109,41*46
$GPGSV,3,3,11,20,23,234,,22,23,197,22,50,46,180,33*4F
$GPGLL,3733.34683,N,12712.29816,E,054654.00,A,A*62
$GPRMC,054655.00,A,3733.34598,N,12712.30344,E,15.162,101.95,180524,,,A*5E
$GPVTG,101.95,T,,M,15.162,N,28.079,K,A*34
$GPGGA,054655.00,3733.34598,N,12712.30344,E,1,07,1.14,39.3,M,18.9,M,,*61
$GPGSA,A,3,19,04,06,09,17,11,22,,,,,,2.14,1.14,1.81*0C
$GPGSV,3,1,11,03,,,14,04,28,070,38,06,63,338,37,09,37,117,34*4D
$GPGSV,3,2,11,11,35,287,25,12,,,25,17,55,132,38,19,82,109,40*43
$GPGSV,3,3,11,20,23,234,18,22,23,197,30,50,46,180,37*41
$GPGLL,3733.34598,N,12712.30344,E,054655.00,A,A*6E
$GPRMC,054656.00,A,3733.34528,N,12712.30881,E,15.586,98.51,180524,,,A*63
$GPVTG,98.51,T,,M,15.586,N,28.865,K,A*06
$GPGGA,054656.00,3733.34528,N,12712.30881,E,1,08,1.04,39.0,M,18.9,M,,*66
$GPGSA,A,3,19,04,06,09,17,11,22,20,,,,,1.93,1.04,1.63*0F
$GPGSV,3,1,11,03,,,15,04,28,070,39,06,63,338,37,09,37,117,38*41
$GPGSV,3,2,11,11,35,287,31,12,,,24,17,55,132,38,19,82,109,42*45
$GPGSV,3,3,11,20,23,234,27,22,23,197,30,50,46,180,35*4F
$GPGLL,3733.34528,N,12712.30881,E,054656.00,A,A*64
$GPRMC,054657.00,A,3733.34491,N,12712.31475,E,17.284,92.90,180524,,,A*67
$GPVTG,92.90,T,,M,17.284,N,32.010,K,A*07
$GPGGA,054657.00,3733.34491,N,12712.31475,E,1,07,1.14,38.8,M,18.9,M,,*65
$GPGSA,A,3,19,04,06,09,17,11,22,,,,,,2.14,1.14,1.81*0C
$GPGSV,3,1,11,03,,,15,04,28,070,41,06,63,338,32,09,37,117,41*45
$GPGSV,3,2,11,11,35,287,33,12,,,34,17,55,132,43,19,82,109,41*49
$GPGSV,3,3,11,20,23,234,23,22,23,197,25,50,46,180,35*4F
$GPGLL,3733.34491,N,12712.31475,E,054657.00,A,A*60
$GPRMC,054658.00,A,3733.34499,N,12712.32047,E,16.254,86.14,180524,,,A*63
$GPVTG,86.14,T,,M,16.254,N,30.103,K,A*03
$GPGGA,054658.00,3733.34499,N,12712.32047,E,1,08,1.14,38.7,M,18.9,M,,*64
$GPGSA,A,3,19,04,06,09,17,11,22,20,,,,,2.14,1.14,1.81*0E
$GPGSV,3,1,10,04,28,070,40,06,63,338,36,09,37,117,41,11,35,287,33*7D
$GPGSV,3,2,10,12,,,32,17,55,132,42,19,82,109,41,20,23,234,30*41
$GPGSV,3,3,10,22,23,197,34,50,46,180,35*79
$GPGLL,3733.34499,N,12712.32047,E,054658.00,A,A*61
$GPRMC,054659.00,A,3733.34545,N,12712.32544,E,13.642,81.02,180524,,,A*62
$GPVTG,81.02,T,,M,13.642,N,25.264,K,A*03
$GPGGA,054659.00,3733.34545,N,12712.32544,E,1,07,1.14,38.4,M,18.9,M,,*6F
$GPGSA,A,3,19,04,06,09,17,11,22,,,,,,2.14,1.14,1.81*0C
$GPGSV,3,1,10,04,28,070,44,06,63,338,38,09,37,117,42,11,35,287,33*74
$GPGSV,3,2,10,12,,,33,17,55,132,35,19,82,109,42,20,23,234,*40
$GPGSV,3,3,10,22,23,197,24,50,46,180,*7E
$GPGLL,3733.34545,N,12712.32544,E,054659.00,A,A*66
$GPRMC,054700.00,A,3733.34545,N,12712.32919,E,9.659,88.46,180524,,,A*53
$GPVTG,88.46,T,,M,9.659,N,17.889,K,A*33
$GPGGA,054700.00,3733.34545,N,12712.32919,E,1,07,1.14,38.0,M,18.9,M,,*62
$GPGSA,A,3,19,04,06,09,17,11,20,,,,,,2.14,1.14,1.81*0E
$GPGSV,3,1,10,04,28,070,37,06,63,338,35,09,37,117,39,11,35,287,30*72
$GPGSV,3,2,10,12,,,30,17,55,132,42,19,82,109,39,20,23,234,31*4D
$GPGSV,3,3,10,22,23,197,21,50,46,180,*7B
$GPGLL,3733.34545,N,12712.32919,E,054700.00,A,A*6F
$GPRMC,054701.00,A,3733.34466,N,12712.33161,E,6.883,102.10,180524,,,A*62
$GPVTG,102.10,T,,M,6.883,N,12.746,K,A*0C
$GPGGA,054701.00,3733.34466,N,12712.33161,E,1,07,1.14,37.6,M,18.9,M,,*6C
$GPGSA,A,3,19,04,06,09,17,11,20,,,,,,2.14,1.14,1.81*0E
$GPGSV,3,1,10,04,28,070,43,06,63,338,29,09,37,117,24,11,35,287,36*76
$GPGSV,3,2,10,12,,,30,17,55,132,45,19,82,109,38,20,23,234,32*48
$GPGSV,3,3,10,22,23,197,23,50,46,180,*79
$GPGLL,3733.34466,N,12712.33161,E,054701.00,A,A*68
$GPRMC,054702.00,A,3733.34284,N,12712.33294,E,7.649,145.33,180524,,,A*69
$GPVTG,145.33,T,,M,7.649,N,14.166,K,A*05
$GPGGA,054702.00,3733.34284,N,12712.33294,E,1,08,1.05,36.6,M,18.9,M,,*62
$GPGSA,A,3,19,04,06,09,17,11,22,20,,,,,1.96,1.05,1.66*0E
$GPGSV,3,1,11,04,28,070,41,06,63,338,41,09,37,117,30,11,35,287,33*7B
$GPGSV,3,2,11,12,,,34,14,,,30,17,55,132,43,19,82,109,42*77
$GPGSV,3,3,11,20,23,234,33,22,23,197,35,50,46,180,*49
$GPGLL,3733.34284,N,12712.33294,E,054702.00,A,A*68
$GPRMC,054703.00,A,3733.34024,N,12712.33335,E,10.606,172.30,180524,,,A*50
$GPVTG,172.30,T,,M,10.606,N,19.641,K,A*30
$GPGGA,054703.00,3733.34024,N,12712.33335,E,1,08,0.99,36.8,M,18.9,M,,*6B
$GPGSA,A,3,19,04,06,09,17,11,22,20,,,,,1.87,0.99,1.58*07
$GPGSV,3,1,10,04,28,070,29,06,63,338,40,09,37,117,34,11,35,287,38*7A
$GPGSV,3,2,10,12,,,35,17,55,132,44,19,82,109,40,20,23,234,32*43
$GPGSV,3,3,10,22,23,197,42,50,46,180,*7E
$GPGLL,3733.34024,N,12712.33335,E,054703.00,A,A*6B
$GPRMC,054704.00,A,3733.33682,N,12712.33367,E,13.433,177.39,180524,,,A*56
$GPVTG,177.39,T,,M,13.433,N,24.878,K,A*31
$GPGGA,054704.00,3733.33682,N,12712.33367,E,1,08,1.41,37.3,M,18.9,M,,*68
$GPGSA,A,3,19,04,06,09,17,11,22,20,,,,,2.35,1.41,1.87*0B
$GPGSV,3,1,10,04,28,070,30,06,63,338,35,09,37,117,29,11,35,287,36*72
$GPGSV,3,2,10,12,,,31,17,55,132,40,19,82,109,40,20,23,234,30*41
$GPGSV,3,3,10,22,23,197,38,50,46,180,*73
