$GPRMC,064958.00,A,3733.32475,N,12712.34994,E,0.302,,180524,,,A*7A
$GPVTG,,T,,M,0.302,N,0.558,K,A*2A
$GPGGA,064958.00,3733.32475,N,12712.34994,E,1,06,1.63,41.4,M,18.9,M,,*6E
$GPGSA,A,3,06,11,19,09,20,04,,,,,,,3.05,1.63,2.57*01
$GPGSV,2,1,08,04,18,044,17,06,63,046,29,09,46,078,31,11,55,317,39*7A
$GPGSV,2,2,08,17,27,150,,19,52,154,28,20,45,258,43,50,43,152,31*7E
$GPGLL,3733.32475,N,12712.34994,E,064958.00,A,A*68
$GPRMC,064959.00,A,3733.32555,N,12712.34871,E,0.312,,180524,,,A*73
$GPVTG,,T,,M,0.312,N,0.578,K,A*29
$GPGGA,064959.00,3733.32555,N,12712.34871,E,1,06,1.38,39.8,M,18.9,M,,*6B
$GPGSA,A,3,06,11,19,09,20,04,,,,,,,2.92,1.38,2.57*00
$GPGSV,2,1,08,04,18,044,16,06,63,046,29,09,46,078,32,11,55,317,39*78
$GPGSV,2,2,08,17,27,150,,19,52,154,29,20,45,258,43,50,43,152,30*7E
$GPGLL,3733.32555,N,12712.34871,E,064959.00,A,A*60
$GPRMC,065000.00,A,3733.32603,N,12712.34741,E,0.197,,180524,,,A*74
$GPVTG,,T,,M,0.197,N,0.366,K,A*2F
$GPGGA,065000.00,3733.32603,N,12712.34741,E,1,06,1.38,38.9,M,18.9,M,,*63
$GPGSA,A,3,06,11,19,09,20,04,,,,,,,2.92,1.38,2.57*00
$GPGSV,2,1,08,04,18,044,15,06,63,046,31,09,46,078,33,11,55,317,39*73
$GPGSV,2,2,08,17,27,150,,19,52,154,29,20,45,258,43,50,43,152,31*7F
$GPGLL,3733.32603,N,12712.34741,E,065000.00,A,A*68
$GPRMC,065001.00,A,3733.32573,N,12712.34488,E,0.170,,180524,,,A*7E
$GPVTG,,T,,M,0.170,N,0.315,K,A*22
$GPGGA,065001.00,3733.32573,N,12712.34488,E,1,06,1.38,40.6,M,18.9,M,,*60
$GPGSA,A,3,06,11,19,09,20,04,,,,,,,2.92,1.38,2.57*00
$GPGSV,2,1,08,04,18,044,13,06,63,046,32,09,46,078,33,11,55,317,38*77
$GPGSV,2,2,08,17,27,150,,19,52,154,29,20,45,258,43,50,43,152,31*7F
$GPGLL,3733.32573,N,12712.34488,E,065001.00,A,A*6B
$GPRMC,065002.00,A,3733.32489,N,12712.34188,E,0.500,,180524,,,A*7F
$GPVTG,,T,,M,0.500,N,0.926,K,A*2B
$GPGGA,065002.00,3733.32489,N,12712.34188,E,1,05,1.38,42.0,M,18.9,M,,*65
$GPGSA,A,3,06,11,19,09,20,,,,,,,,2.92,1.38,2.57*04
$GPGSV,2,1,08,04,18,044,13,06,63,046,40,09,46,078,35,11,55,317,40*7B
$GPGSV,2,2,08,17,27,150,,19,52,154,34,20,45,258,45,50,43,152,31*75
$GPGLL,3733.32489,N,12712.34188,E,065002.00,A,A*69
$GPRMC,065003.00,A,3733.32446,N,12712.34094,E,1.281,190.32,180524,,,A*69
$GPVTG,190.32,T,,M,1.281,N,2.372,K,A*3A
$GPGGA,065003.00,3733.32446,N,12712.34094,E,1,05,1.38,42.2,M,18.9,M,,*69
$GPGSA,A,3,06,11,19,09,20,,,,,,,,2.92,1.38,2.57*04
$GPGSV,2,1,08,04,18,044,,06,63,046,29,09,46,078,35,11,55,317,39*78
$GPGSV,2,2,08,17,27,150,26,19,52,154,31,20,45,258,44,50,43,152,30*74
$GPGLL,3733.32446,N,12712.34094,E,065003.00,A,A*67
$GPRMC,065004.00,A,3733.32343,N,12712.33947,E,2.299,203.22,180524,,,A*6E
$GPVTG,203.22,T,,M,2.299,N,4.258,K,A*37
$GPGGA,065004.00,3733.32343,N,12712.33947,E,1,06,1.38,44.0,M,18.9,M,,*6B
$GPGSA,A,3,06,11,19,09,20,17,,,,,,,2.92,1.38,2.57*02
$GPGSV,2,1,08,04,18,044,,06,63,046,34,09,46,078,43,11,55,317,41*7A
$GPGSV,2,2,08,17,27,150,27,19,52,154,25,20,45,258,44,50,43,152,30*70
$GPGLL,3733.32343,N,12712.33947,E,065004.00,A,A*62
$GPRMC,065005.00,A,3733.32241,N,12712.33837,E,3.900,207.36,180524,,,A*61
$GPVTG,207.36,T,,M,3.900,N,7.224,K,A*34
$GPGGA,065005.00,3733.32241,N,12712.33837,E,1,06,1.34,44.4,M,18.9,M,,*67
$GPGSA,A,3,06,11,19,09,20,17,,,,,,,2.75,1.34,2.39*0F
$GPGSV,2,1,08,04,18,044,26,06,63,046,36,09,46,078,35,11,55,317,39*72
$GPGSV,2,2,08,17,27,150,26,19,52,154,35,20,45,258,44,50,43,152,36*76
$GPGLL,3733.32241,N,12712.33837,E,065005.00,A,A*66
$GPRMC,065006.00,A,3733.32133,N,12712.33714,E,4.544,208.39,180524,,,A*61
$GPVTG,208.39,T,,M,4.544,N,8.415,K,A*34
$GPGGA,065006.00,3733.32133,N,12712.33714,E,1,07,1.34,44.1,M,18.9,M,,*68
$GPGSA,A,3,06,11,19,09,20,17,04,,,,,,2.74,1.34,2.39*0A
$GPGSV,2,1,08,04,18,044,25,06,63,046,36,09,46,078,35,11,55,317,38*70
$GPGSV,2,2,08,17,27,150,27,19,52,154,39,20,45,258,44,50,43,152,32*7F
$GPGLL,3733.32133,N,12712.33714,E,065006.00,A,A*6D
$GPRMC,065007.00,A,3733.31941,N,12712.33559,E,6.560,203.57,180524,,,A*62
$GPVTG,203.57,T,,M,6.560,N,12.149,K,A*04
$GPGGA,065007.00,3733.31941,N,12712.33559,E,1,07,1.34,44.7,M,18.9,M,,*6A
$GPGSA,A,3,06,11,19,09,20,17,04,,,,,,2.74,1.34,2.39*0A
$GPGSV,2,1,08,04,18,044,23,06,63,046,42,09,46,078,25,11,55,317,40*7B
$GPGSV,2,2,08,17,27,150,30,19,52,154,42,20,45,258,39,50,43,152,32*7F
$GPGLL,3733.31941,N,12712.33559,E,065007.00,A,A*69
$GPRMC,065008.00,A,3733.31714,N,12712.33463,E,7.301,193.96,180524,,,A*6C
$GPVTG,193.96,T,,M,7.301,N,13.522,K,A*0B
$GPGGA,065008.00,3733.31714,N,12712.33463,E,1,07,1.34,45.5,M,18.9,M,,*60
$GPGSA,A,3,06,11,19,09,20,17,04,,,,,,2.74,1.34,2.39*0A
$GPGSV,2,1,07,04,18,044,22,06,63,046,39,09,46,078,31,11,55,317,40*7C
$GPGSV,2,2,07,17,27,150,42,19,52,154,40,20,45,258,44*48
$GPGLL,3733.31714,N,12712.33463,E,065008.00,A,A*60
$GPRMC,065009.00,A,3733.31503,N,12712.33390,E,7.460,196.05,180524,,,A*6D
$GPVTG,196.05,T,,M,7.460,N,13.817,K,A*0F
$GPGGA,065009.00,3733.31503,N,12712.33390,E,1,07,1.34,45.4,M,18.9,M,,*6F
$GPGSA,A,3,06,11,19,09,20,17,04,,,,,,2.74,1.34,2.39*0A
$GPGSV,2,1,07,04,18,044,22,06,63,046,37,09,46,078,25,11,55,317,37*77
$GPGSV,2,2,07,17,27,150,43,19,52,154,38,20,45,258,42*40
$GPGLL,3733.31503,N,12712.33390,E,065009.00,A,A*6E
$GPRMC,065010.00,A,3733.31301,N,12712.33254,E,6.912,205.14,180524,,,A*68
$GPVTG,205.14,T,,M,6.912,N,12.801,K,A*09
$GPGGA,065010.00,3733.31301,N,12712.33254,E,1,07,1.34,45.2,M,18.9,M,,*6C
$GPGSA,A,3,06,11,19,09,20,17,04,,,,,,2.74,1.34,2.39*0A
$GPGSV,2,1,07,04,18,044,21,06,63,046,40,09,46,078,25,11,55,317,42*76
$GPGSV,2,2,07,17,27,150,40,19,52,154,41,20,45,258,41*4E
$GPGLL,3733.31301,N,12712.33254,E,065010.00,A,A*6B
$GPRMC,065011.00,A,3733.31163,N,12712.33094,E,6.047,217.67,180524,,,A*6F
$GPVTG,217.67,T,,M,6.047,N,11.200,K,A*0F
$GPGGA,065011.00,3733.31163,N,12712.33094,E,1,07,1.34,45.1,M,18.9,M,,*66
$GPGSA,A,3,06,11,19,09,20,17,04,,,,,,2.74,1.34,2.39*0A
$GPGSV,2,1,07,04,18,044,19,06,63,046,28,09,46,078,26,11,55,317,39*7C
$GPGSV,2,2,07,17,27,150,34,19,52,154,31,20,45,258,44*4F
$GPGLL,3733.31163,N,12712.33094,E,065011.00,A,A*62
$GPRMC,065012.00,A,3733.31102,N,12712.32924,E,5.214,230.50,180524,,,A*6E
$GPVTG,230.50,T,,M,5.214,N,9.656,K,A*37
$GPGGA,065012.00,3733.31102,N,12712.32924,E,1,07,1.34,44.8,M,18.9,M,,*69
$GPGSA,A,3,06,11,19,09,20,17,04,,,,,,2.74,1.34,2.39*0A
$GPGSV,2,1,07,04,18,044,19,06,63,046,26,09,46,078,31,11,55,317,36*7B
$GPGSV,2,2,07,17,27,150,33,19,52,154,37,20,45,258,33*4E
$GPGLL,3733.31102,N,12712.32924,E,065012.00,A,A*65
$GPRMC,065013.00,A,3733.31112,N,12712.32747,E,5.252,255.21,180524,,,A*62
$GPVTG,255.21,T,,M,5.252,N,9.726,K,A*36
$GPGGA,065013.00,3733.31112,N,12712.32747,E,1,07,1.34,44.6,M,18.9,M,,*6C
$GPGSA,A,3,06,11,19,09,20,17,04,,,,,,2.74,1.34,2.39*0A
$GPGSV,2,1,07,04,18,044,21,06,63,046,38,09,46,078,34,11,55,317,38*74
$GPGSV,2,2,07,17,27,150,29,19,52,154,35,20,45,258,28*4D
$GPGLL,3733.31112,N,12712.32747,E,065013.00,A,A*6E
$GPRMC,065014.00,A,3733.31156,N,12712.32527,E,6.520,277.45,180524,,,A*62
$GPVTG,277.45,T,,M,6.520,N,12.076,K,A*0D
$GPGGA,065014.00,3733.31156,N,12712.32527,E,1,07,1.34,44.2,M,18.9,M,,*6B
$GPGSA,A,3,06,11,19,09,20,17,04,,,,,,2.74,1.34,2.39*0A
$GPGSV,2,1,08,04,18,044,21,06,63,046,40,09,46,078,31,11,55,317,38*71
$GPGSV,2,2,08,12,,,30,17,27,150,23,19,52,154,32,20,45,258,33*45
$GPGLL,3733.31156,N,12712.32527,E,065014.00,A,A*6D
$GPRMC,065015.00,A,3733.31249,N,12712.32248,E,9.209,294.50,180524,,,A*6A
$GPVTG,294.50,T,,M,9.209,N,17.055,K,A*03
$GPGGA,065015.00,3733.31249,N,12712.32248,E,1,07,1.34,43.9,M,18.9,M,,*65
$GPGSA,A,3,06,11,19,09,20,17,04,,,,,,2.74,1.34,2.39*0A
$GPGSV,2,1,08,04,18,044,20,06,63,046,41,09,46,078,34,11,55,317,40*7B
$GPGSV,2,2,08,12,,,33,17,27,150,24,19,52,154,35,20,45,258,37*42
$GPGLL,3733.31249,N,12712.32248,E,065015.00,A,A*6F
$GPRMC,065016.00,A,3733.31379,N,12712.31874,E,12.622,297.14,180524,,,A*59
$GPVTG,297.14,T,,M,12.622,N,23.376,K,A*32
$GPGGA,065016.00,3733.31379,N,12712.31874,E,1,07,1.34,43.7,M,18.9,M,,*6C
$GPGSA,A,3,06,11,19,09,20,17,04,,,,,,2.74,1.34,2.39*0A
$GPGSV,2,1,08,04,18,044,20,06,63,046,40,09,46,078,35,11,55,317,41*7A
$GPGSV,2,2,08,12,,,30,17,27,150,33,19,52,154,34,20,45,258,40*46
$GPGLL,3733.31379,N,12712.31874,E,065016.00,A,A*68
$GPRMC,065017.00,A,3733.31575,N,12712.31414,E,15.900,298.43,180524,,,A*5D
$GPVTG,298.43,T,,M,15.900,N,29.447,K,A*38
$GPGGA,065017.00,3733.31575,N,12712.31414,E,1,07,1.34,43.2,M,18.9,M,,*68
$GPGSA,A,3,06,11,19,09,20,17,04,,,,,,2.74,1.34,2.39*0A
$GPGSV,2,1,08,04,18,044,18,06,63,046,35,09,46,078,34,11,55,317,37*73
$GPGSV,2,2,08,12,,,24,17,27,150,19,19,52,154,31,20,45,258,32*4B
$GPGLL,3733.31575,N,12712.31414,E,065017.00,A,A*69
$GPRMC,065018.00,A,3733.31802,N,12712.30843,E,19.302,295.35,180524,,,A*58
$GPVTG,295.35,T,,M,19.302,N,35.747,K,A*3E
$GPGGA,065018.00,3733.31802,N,12712.30843,E,1,07,1.34,41.3,M,18.9,M,,*66
$GPGSA,A,3,06,11,19,09,20,17,04,,,,,,2.74,1.34,2.39*0A
$GPGSV,2,1,08,04,18,044,18,06,63,046,36,09,46,078,31,11,55,317,37*75
$GPGSV,2,2,08,12,,,30,17,27,150,19,19,52,154,30,20,45,258,30*4D
$GPGLL,3733.31802,N,12712.30843,E,065018.00,A,A*64
$GPRMC,065019.00,A,3733.32100,N,12712.30164,E,23.174,299.36,180524,,,A*58
$GPVTG,299.36,T,,M,23.174,N,42.918,K,A*3F
$GPGGA,065019.00,3733.32100,N,12712.30164,E,1,07,1.38,40.2,M,18.9,M,,*6F
$GPGSA,A,3,06,11,19,09,20,17,04,,,,,,2.91,1.38,2.57*05
$GPGSV,2,1,08,04,18,044,19,06,63,046,36,09,46,078,27,11,55,317,36*72
$GPGSV,2,2,08,12,,,29,17,27,150,19,19,52,154,30,20,45,258,35*40
$GPGLL,3733.32100,N,12712.30164,E,065019.00,A,A*61
$GPRMC,065020.00,A,3733.32463,N,12712.29374,E,27.047,300.39,180524,,,A*52
$GPVTG,300.39,T,,M,27.047,N,50.091,K,A*3F
$GPGGA,065020.00,3733.32463,N,12712.29374,E,1,06,1.38,38.9,M,18.9,M,,*6B
$GPGSA,A,3,06,11,19,09,20,04,,,,,,,2.91,1.38,2.57*03
$GPGSV,2,1,08,04,18,044,18,06,63,046,38,09,46,078,31,11,55,317,36*7A
$GPGSV,2,2,08,12,,,29,17,27,150,,19,52,154,31,20,45,258,35*49
$GPGLL,3733.32463,N,12712.29374,E,065020.00,A,A*60
$GPRMC,065021.00,A,3733.32861,N,12712.28427,E,31.330,298.95,180524,,,A*5F
$GPVTG,298.95,T,,M,31.330,N,58.023,K,A*3C
$GPGGA,065021.00,3733.32861,N,12712.28427,E,1,06,1.45,40.0,M,18.9,M,,*68
$GPGSA,A,3,06,11,19,09,20,04,,,,,,,4.47,1.45,4.23*01
$GPGSV,2,1,08,04,18,044,18,06,63,046,43,09,46,078,38,11,55,317,43*7D
$GPGSV,2,2,08,12,,,36,17,27,150,20,19,52,154,35,20,45,258,36*42
$GPGLL,3733.32861,N,12712.28427,E,065021.00,A,A*6F
$GPRMC,065022.00,A,3733.33313,N,12712.27379,E,34.319,299.52,180524,,,A*54
$GPVTG,299.52,T,,M,34.319,N,63.560,K,A*32
$GPGGA,065022.00,3733.33313,N,12712.27379,E,1,06,1.45,39.6,M,18.9,M,,*6F
$GPGSA,A,3,06,11,19,09,20,04,,,,,,,4.47,1.45,4.23*01
$GPGSV,2,1,08,04,18,044,19,06,63,046,43,09,46,078,34,11,55,317,43*70
$GPGSV,2,2,08,12,,,29,17,27,150,21,19,52,154,37,20,45,258,41*4F
$GPGLL,3733.33313,N,12712.27379,E,065022.00,A,A*60
$GPRMC,065023.00,A,3733.33806,N,12712.26261,E,36.619,300.12,180524,,,A*51
$GPVTG,300.12,T,,M,36.619,N,67.818,K,A*36
$GPGGA,065023.00,3733.33806,N,12712.26261,E,1,06,1.35,39.4,M,18.9,M,,*6D
$GPGSA,A,3,06,11,19,09,20,04,,,,,,,2.61,1.35,2.23*02
$GPGSV,3,1,09,04,18,044,18,06,63,046,42,09,46,078,38,11,55,317,41*7E
$GPGSV,3,2,09,12,,,38,17,27,150,20,19,52,154,36,20,45,258,40*4E
$GPGSV,3,3,09,25,,,39*7D
$GPGLL,3733.33806,N,12712.26261,E,065023.00,A,A*67
$GPRMC,065024.00,A,3733.34330,N,12712.25067,E,39.239,300.37,180524,,,A*56
$GPVTG,300.37,T,,M,39.239,N,72.671,K,A*3D
$GPGGA,065024.00,3733.34330,N,12712.25067,E,1,07,1.37,39.9,M,18.9,M,,*6A
$GPGSA,A,3,06,11,19,09,20,17,04,,,,,,3.06,1.37,2.74*04
$GPGSV,3,1,09,04,18,044,18,06,63,046,44,09,46,078,38,11,55,317,44*7D
$GPGSV,3,2,09,12,,,35,17,27,150,21,19,52,154,37,20,45,258,43*40
$GPGSV,3,3,09,25,,,38*7C
$GPGLL,3733.34330,N,12712.25067,E,065024.00,A,A*6E
$GPRMC,065025.00,A,3733.34888,N,12712.23823,E,41.125,299.75,180524,,,A*57
$GPVTG,299.75,T,,M,41.125,N,76.164,K,A*3C
$GPGGA,065025.00,3733.34888,N,12712.23823,E,1,06,1.37,40.3,M,18.9,M,,*68
$GPGSA,A,3,06,11,19,09,20,17,,,,,,,3.06,1.37,2.74*00
$GPGSV,3,1,09,04,18,044,18,06,63,046,44,09,46,078,39,11,55,317,44*7C
$GPGSV,3,2,09,12,,,39,17,27,150,27,19,52,154,38,20,45,258,39*48
$GPGSV,3,3,09,25,,,38*7C
$GPGLL,3733.34888,N,12712.23823,E,065025.00,A,A*69
$GPRMC,065026.00,A,3733.35430,N,12712.22600,E,39.279,299.68,180524,,,A*5D
$GPVTG,299.68,T,,M,39.279,N,72.744,K,A*35
$GPGGA,065026.00,3733.35430,N,12712.22600,E,1,06,1.37,40.2,M,18.9,M,,*6A
$GPGSA,A,3,06,11,19,09,20,17,,,,,,,3.06,1.37,2.74*00
$GPGSV,3,1,09,04,18,044,18,06,63,046,41,09,46,078,37,11,55,317,44*77
$GPGSV,3,2,09,12,,,32,17,27,150,23,19,52,154,35,20,45,258,42*46
$GPGSV,3,3,09,25,,,34*70
$GPGLL,3733.35430,N,12712.22600,E,065026.00,A,A*6A
$GPRMC,065027.00,A,3733.35934,N,12712.21474,E,36.136,299.26,180524,,,A*5A
$GPVTG,299.26,T,,M,36.136,N,66.925,K,A*34
$GPGGA,065027.00,3733.35934,N,12712.21474,E,1,07,1.35,39.8,M,18.9,M,,*67
$GPGSA,A,3,06,11,19,09,20,17,04,,,,,,2.61,1.35,2.23*04
$GPGSV,3,1,09,04,18,044,21,06,63,046,43,09,46,078,38,11,55,317,43*77
$GPGSV,3,2,09,12,,,37,17,27,150,19,19,52,154,35,20,45,258,33*4C
$GPGSV,3,3,09,25,,,32*76
$GPGLL,3733.35934,N,12712.21474,E,065027.00,A,A*60
$GPRMC,065028.00,A,3733.36356,N,12712.20436,E,32.088,296.57,180524,,,A*56
$GPVTG,296.57,T,,M,32.088,N,59.428,K,A*31
$GPGGA,065028.00,3733.36356,N,12712.20436,E,1,06,1.35,39.3,M,18.9,M,,*68
$GPGSA,A,3,06,11,19,09,20,04,,,,,,,2.61,1.35,2.23*02
$GPGSV,3,1,09,04,18,044,19,06,63,046,41,09,46,078,33,11,55,317,42*74
$GPGSV,3,2,09,12,,,37,17,27,150,,19,52,154,35,20,45,258,39*4E
$GPGSV,3,3,09,25,,,32*76
$GPGLL,3733.36356,N,12712.20436,E,065028.00,A,A*65
$GPRMC,065029.00,A,3733.36631,N,12712.19491,E,27.432,287.76,180524,,,A*56
$GPVTG,287.76,T,,M,27.432,N,50.804,K,A*38
$GPGGA,065029.00,3733.36631,N,12712.19491,E,1,06,1.35,38.7,M,18.9,M,,*6F
$GPGSA,A,3,06,11,19,09,20,04,,,,,,,2.61,1.35,2.23*02
$GPGSV,3,1,09,04,18,044,20,06,63,046,42,09,46,078,33,11,55,317,40*7F
$GPGSV,3,2,09,12,,,34,17,27,150,,19,52,154,32,20,45,258,40*44
$GPGSV,3,3,09,25,,,25*70
$GPGLL,3733.36631,N,12712.19491,E,065029.00,A,A*67
$GPRMC,065030.00,A,3733.36777,N,12712.18615,E,24.756,279.91,180524,,,A*58
$GPVTG,279.91,T,,M,24.756,N,45.848,K,A*3E
$GPGGA,065030.00,3733.36777,N,12712.18615,E,1,06,1.35,38.3,M,18.9,M,,*6F
$GPGSA,A,3,06,11,19,09,20,04,,,,,,,2.61,1.35,2.23*02
$GPGSV,3,1,09,04,18,044,21,06,63,046,41,09,46,078,38,11,55,317,38*79
$GPGSV,3,2,09,12,,,34,17,27,150,17,19,52,154,25,20,45,258,37*44
$GPGSV,3,3,09,25,,,23*76
$GPGLL,3733.36777,N,12712.18615,E,065030.00,A,A*63
$GPRMC,065031.00,A,3733.36919,N,12712.17784,E,23.963,282.88,180524,,,A*5A
$GPVTG,282.88,T,,M,23.963,N,44.379,K,A*35
$GPGGA,065031.00,3733.36919,N,12712.17784,E,1,07,1.11,38.1,M,18.9,M,,*6B
$GPGSA,A,3,06,11,19,09,20,17,04,,,,,,2.05,1.11,1.73*06
$GPGSV,3,1,09,04,18,044,21,06,63,046,43,09,46,078,38,11,55,317,39*7A
$GPGSV,3,2,09,12,,,38,17,27,150,28,19,52,154,25,20,45,258,37*44
$GPGSV,3,3,09,25,,,20*75
$GPGLL,3733.36919,N,12712.17784,E,065031.00,A,A*62
$GPRMC,065032.00,A,3733.37116,N,12712.16983,E,23.905,289.13,180524,,,A*5E
$GPVTG,289.13,T,,M,23.905,N,44.272,K,A*36
$GPGGA,065032.00,3733.37116,N,12712.16983,E,1,07,1.11,37.7,M,18.9,M,,*6F
$GPGSA,A,3,06,11,19,09,20,17,04,,,,,,2.05,1.11,1.73*06
$GPGSV,3,1,09,04,18,044,21,06,63,046,42,09,46,078,35,11,55,317,42*7A
$GPGSV,3,2,09,12,,,32,17,27,150,28,19,52,154,31,20,45,258,38*44
$GPGSV,3,3,09,25,,,23*76
$GPGLL,3733.37116,N,12712.16983,E,065032.00,A,A*6F
$GPRMC,065033.00,A,3733.37344,N,12712.16203,E,23.677,290.87,180524,,,A*56
$GPVTG,290.87,T,,M,23.677,N,43.849,K,A*3C
$GPGGA,065033.00,3733.37344,N,12712.16203,E,1,06,1.35,37.7,M,18.9,M,,*6F
$GPGSA,A,3,06,11,19,09,20,04,,,,,,,2.61,1.35,2.23*02
$GPGSV,3,1,09,04,18,044,20,06,63,046,42,09,46,078,38,11,55,317,44*70
$GPGSV,3,2,09,12,,,36,17,27,150,28,19,52,154,32,20,45,258,38*43
$GPGSV,3,3,09,25,,,30*74
$GPGLL,3733.37344,N,12712.16203,E,065033.00,A,A*68
$GPRMC,065034.00,A,3733.37577,N,12712.15453,E,22.738,291.60,180524,,,A*54
$GPVTG,291.60,T,,M,22.738,N,42.111,K,A*3A
$GPGGA,065034.00,3733.37577,N,12712.15453,E,1,07,1.11,37.7,M,18.9,M,,*69
$GPGSA,A,3,06,11,19,09,20,17,04,,,,,,2.05,1.11,1.73*06
$GPGSV,3,1,09,04,18,044,19,06,63,046,43,09,46,078,39,11,55,317,44*7A
$GPGSV,3,2,09,12,,,28,17,27,150,27,19,52,154,35,20,45,258,40*4B
$GPGSV,3,3,09,25,,,30*74
$GPGLL,3733.37577,N,12712.15453,E,065034.00,A,A*69
$GPRMC,065035.00,A,3733.37802,N,12712.14756,E,20.927,293.32,180524,,,A*5A
$GPVTG,293.32,T,,M,20.927,N,38.757,K,A*34
$GPGGA,065035.00,3733.37802,N,12712.14756,E,1,07,1.11,37.4,M,18.9,M,,*63
$GPGSA,A,3,06,11,19,09,20,17,04,,,,,,2.05,1.11,1.73*06
$GPGSV,3,1,09,04,18,043,23,06,63,046,43,09,46,078,36,11,55,317,44*7B
$GPGSV,3,2,09,12,,,27,17,27,150,28,19,52,154,31,20,45,258,43*4C
$GPGSV,3,3,09,25,,,27*72
$GPGLL,3733.37802,N,12712.14756,E,065035.00,A,A*60
$GPRMC,065036.00,A,3733.38012,N,12712.14160,E,17.462,293.60,180524,,,A*53
$GPVTG,293.60,T,,M,17.462,N,32.340,K,A*33
$GPGGA,065036.00,3733.38012,N,12712.14160,E,1,07,1.08,37.0,M,18.9,M,,*69
$GPGSA,A,3,06,11,19,09,20,17,04,,,,,,1.86,1.08,1.51*06
$GPGSV,3,1,09,04,18,043,25,06,63,047,44,09,46,078,31,11,55,317,44*7C
$GPGSV,3,2,09,12,,,38,17,27,150,25,19,52,154,37,20,45,258,22*4E
$GPGSV,3,3,09,25,,,26*73
$GPGLL,3733.38012,N,12712.14160,E,065036.00,A,A*66
$GPRMC,065037.00,A,3733.38167,N,12712.13689,E,13.443,292.99,180524,,,A*56
$GPVTG,292.99,T,,M,13.443,N,24.896,K,A*34
$GPGGA,065037.00,3733.38167,N,12712.13689,E,1,06,1.35,37.0,M,18.9,M,,*63
$GPGSA,A,3,06,11,19,09,20,04,,,,,,,2.61,1.35,2.23*02
$GPGSV,3,1,09,04,18,043,24,06,63,047,44,09,45,078,35,11,55,317,43*7D
$GPGSV,3,2,09,12,,,40,17,27,150,,19,52,154,35,20,45,258,23*45
$GPGSV,3,3,09,25,,,26*73
$GPGLL,3733.38167,N,12712.13689,E,065037.00,A,A*63
$GPRMC,065038.00,A,3733.38300,N,12712.13304,E,11.422,294.03,180524,,,A*5A
$GPVTG,294.03,T,,M,11.422,N,21.154,K,A*36
$GPGGA,065038.00,3733.38300,N,12712.13304,E,1,06,1.35,37.0,M,18.9,M,,*6F
$GPGSA,A,3,06,11,19,09,20,04,,,,,,,2.61,1.35,2.23*02
$GPGSV,3,1,09,04,18,043,24,06,63,047,44,09,45,078,34,11,55,317,43*7C
$GPGSV,3,2,09,12,,,40,17,27,150,23,19,52,154,32,20,45,258,30*41
$GPGSV,3,3,09,25,,,25*70
$GPGLL,3733.38300,N,12712.13304,E,065038.00,A,A*6F
$GPRMC,065039.00,A,3733.38400,N,12712.12997,E,8.582,293.80,180524,,,A*62
$GPVTG,293.80,T,,M,8.582,N,15.894,K,A*0B
$GPGGA,065039.00,3733.38400,N,12712.12997,E,1,06,1.35,37.2,M,18.9,M,,*6A
$GPGSA,A,3,06,11,19,09,20,04,,,,,,,2.61,1.35,2.23*02
$GPGSV,3,1,09,04,18,043,24,06,63,047,43,09,45,078,33,11,55,317,43*7C
$GPGSV,3,2,09,12,,,40,17,27,150,24,19,52,154,27,20,45,258,44*41
$GPGSV,3,3,09,25,12,305,26*46
$GPGLL,3733.38400,N,12712.12997,E,065039.00,A,A*68
$GPRMC,065040.00,A,3733.38470,N,12712.12728,E,7.729,292.40,180524,,,A*60
$GPVTG,292.40,T,,M,7.729,N,14.314,K,A*08
$GPGGA,065040.00,3733.38470,N,12712.12728,E,1,07,1.11,35.9,M,18.9,M,,*67
$GPGSA,A,3,06,11,19,09,20,17,04,,,,,,2.05,1.11,1.73*06
$GPGSV,3,1,09,04,18,043,25,06,63,047,43,09,45,078,36,11,55,317,44*7F
$GPGSV,3,2,09,12,,,39,17,27,150,25,19,51,154,28,20,45,258,43*45
$GPGSV,3,3,09,25,12,305,25*45
$GPGLL,3733.38470,N,12712.12728,E,065040.00,A,A*6B
$GPRMC,065041.00,A,3733.38537,N,12712.12456,E,8.120,289.17,180524,,,A*61
$GPVTG,289.17,T,,M,8.120,N,15.038,K,A*0C
$GPGGA,065041.00,3733.38537,N,12712.12456,E,1,07,1.11,36.0,M,18.9,M,,*64
$GPGSA,A,3,06,11,19,09,20,17,04,,,,,,2.05,1.11,1.73*06
$GPGSV,3,1,09,04,18,043,24,06,63,047,42,09,45,078,36,11,55,317,42*79
$GPGSV,3,2,09,12,,,36,17,27,150,23,19,51,154,27,20,45,258,43*43
$GPGSV,3,3,09,25,12,305,31*40
$GPGLL,3733.38537,N,12712.12456,E,065041.00,A,A*62
$GPRMC,065042.00,A,3733.38574,N,12712.12197,E,7.577,280.05,180524,,,A*6E
$GPVTG,280.05,T,,M,7.577,N,14.033,K,A*05
$GPGGA,065042.00,3733.38574,N,12712.12197,E,1,06,1.35,36.6,M,18.9,M,,*69
$GPGSA,A,3,06,11,19,09,20,04,,,,,,,2.61,1.35,2.23*02
$GPGSV,3,1,10,04,18,043,22,05,,,42,06,63,047,43,09,45,078,39*49
$GPGSV,3,2,10,11,55,317,41,12,,,36,17,27,150,,19,51,154,26*40
$GPGSV,3,3,10,20,45,258,43,25,12,305,31*73
$GPGLL,3733.38574,N,12712.12197,E,065042.00,A,A*6E
$GPRMC,065043.00,A,3733.38512,N,12712.11937,E,7.737,261.41,180524,,,A*67
$GPVTG,261.41,T,,M,7.737,N,14.328,K,A*05
$GPGGA,065043.00,3733.38512,N,12712.11937,E,1,06,1.35,35.9,M,18.9,M,,*65
$GPGSA,A,3,06,11,19,09,20,04,,,,,,,2.61,1.35,2.23*02
$GPGSV,3,1,10,04,18,043,22,05,,,28,06,63,047,34,09,45,078,35*49
$GPGSV,3,2,10,11,55,317,42,12,,,27,17,27,150,20,19,51,154,24*43
$GPGSV,3,3,10,20,45,258,40,25,12,305,40*76
$GPGLL,3733.38512,N,12712.11937,E,065043.00,A,A*6E
$GPRMC,065044.00,A,3733.38366,N,12712.11739,E,7.380,226.13,180524,,,A*69
$GPVTG,226.13,T,,M,7.380,N,13.669,K,A*0E
$GPGGA,065044.00,3733.38366,N,12712.11739,E,1,07,1.02,36.6,M,18.9,M,,*6E
$GPGSA,A,3,06,11,19,09,20,17,04,,,,,,1.78,1.02,1.46*0B
$GPGSV,3,1,10,04,18,043,23,05,,,25,06,63,047,36,09,45,078,32*40
$GPGSV,3,2,10,11,55,317,38,12,,,27,17,27,150,29,19,51,154,30*42
$GPGSV,3,3,10,20,45,258,43,25,12,305,33*71
$GPGLL,3733.38366,N,12712.11739,E,065044.00,A,A*6C
$GPRMC,065045.00,A,3733.38120,N,12712.11640,E,9.152,194.78,180524,,,A*63
$GPVTG,194.78,T,,M,9.152,N,16.949,K,A*02
$GPGGA,065045.00,3733.38120,N,12712.11640,E,1,07,1.08,38.3,M,18.9,M,,*61
$GPGSA,A,3,06,11,19,09,20,17,04,,,,,,1.86,1.08,1.51*06
$GPGSV,3,1,10,04,18,043,24,05,,,40,06,63,047,32,09,45,078,36*44
$GPGSV,3,2,10,11,55,317,38,12,,,29,17,27,150,33,19,51,154,44*44
$GPGSV,3,3,10,20,45,258,43,25,12,305,18*78
$GPGLL,3733.38120,N,12712.11640,E,065045.00,A,A*62
$GPRMC,065046.00,A,3733.37856,N,12712.11586,E,10.168,185.02,180524,,,A*52
$GPVTG,185.02,T,,M,10.168,N,18.831,K,A*3E
$GPGGA,065046.00,3733.37856,N,12712.11586,E,1,07,1.08,40.2,M,18.9,M,,*62
$GPGSA,A,3,06,11,19,09,20,17,04,,,,,,1.86,1.08,1.51*06
$GPGSV,3,1,10,04,18,043,24,05,,,37,06,63,047,39,09,45,078,26*4E
$GPGSV,3,2,10,11,55,317,41,12,,,33,17,27,150,27,19,51,154,42*42
$GPGSV,3,3,10,20,45,258,43,25,12,305,17*77
$GPGLL,3733.37856,N,12712.11586,E,065046.00,A,A*6F
$GPRMC,065047.00,A,3733.37569,N,12712.11585,E,10.282,178.84,180524,,,A*5A
$GPVTG,178.84,T,,M,10.282,N,19.042,K,A*38
$GPGGA,065047.00,3733.37569,N,12712.11585,E,1,07,1.08,40.9,M,18.9,M,,*6A
$GPGSA,A,3,06,11,19,09,20,17,04,,,,,,1.86,1.08,1.51*06
$GPGSV,3,1,10,04,18,043,22,05,,,26,06,63,047,26,09,45,078,23*43
$GPGSV,3,2,10,11,55,317,40,12,,,34,17,27,150,36,19,51,154,41*47
$GPGSV,3,3,10,20,45,258,41,25,12,305,16*74
$GPGLL,3733.37569,N,12712.11585,E,065047.00,A,A*6C
$GPRMC,065048.00,A,3733.37332,N,12712.11599,E,7.554,176.96,180524,,,A*67
$GPVTG,176.96,T,,M,7.554,N,13.990,K,A*03
$GPGGA,065048.00,3733.37332,N,12712.11599,E,1,07,1.08,41.2,M,18.9,M,,*6A
$GPGSA,A,3,06,11,19,09,20,17,04,,,,,,1.83,1.08,1.47*04
$GPGSV,3,1,10,04,18,043,21,05,,,31,06,63,047,41,09,45,078,20*44
$GPGSV,3,2,10,11,55,317,40,12,,,34,17,27,150,42,19,51,154,44*41
$GPGSV,3,3,10,20,45,258,40,25,12,305,17*74
$GPGLL,3733.37332,N,12712.11599,E,065048.00,A,A*66
$GPRMC,065049.00,A,3733.37154,N,12712.11626,E,5.448,175.52,180524,,,A*66
$GPVTG,175.52,T,,M,5.448,N,10.091,K,A*0D
$GPGGA,065049.00,3733.37154,N,12712.11626,E,1,07,1.72,40.9,M,18.9,M,,*69
$GPGSA,A,3,06,11,19,09,20,17,04,,,,,,3.26,1.72,2.76*05
$GPGSV,3,1,10,04,18,043,21,05,,,33,06,63,047,35,09,45,078,21*44
$GPGSV,3,2,10,11,55,317,38,12,,,30,17,27,150,39,19,51,154,44*46
$GPGSV,3,3,10,20,45,258,36,25,12,305,19*7B
$GPGLL,3733.37154,N,12712.11626,E,065049.00,A,A*62
$GPRMC,065050.00,A,3733.37004,N,12712.11658,E,5.419,171.07,180524,,,A*63
$GPVTG,171.07,T,,M,5.419,N,10.036,K,A*00
$GPGGA,065050.00,3733.37004,N,12712.11658,E,1,07,1.72,41.3,M,18.9,M,,*67
$GPGSA,A,3,06,11,19,09,20,17,04,,,,,,3.25,1.72,2.76*06
$GPGSV,3,1,10,04,18,043,22,05,,,34,06,63,047,31,09,45,078,22*47
$GPGSV,3,2,10,11,55,317,39,12,,,28,17,27,150,37,19,51,154,36*45
$GPGSV,3,3,10,20,45,258,36,25,12,305,19*7B
$GPGLL,3733.37004,N,12712.11658,E,065050.00,A,A*67
$GPRMC,065051.00,A,3733.36846,N,12712.11713,E,6.047,164.47,180524,,,A*6F
$GPVTG,164.47,T,,M,6.047,N,11.200,K,A*0A
$GPGGA,065051.00,3733.36846,N,12712.11713,E,1,07,1.34,42.6,M,18.9,M,,*63
$GPGSA,A,3,06,11,19,09,20,17,04,,,,,,2.74,1.34,2.38*0B
$GPGSV,3,1,10,04,18,043,31,05,,,29,06,63,047,30,09,45,078,30*4B
$GPGSV,3,2,10,11,55,317,41,12,,,33,17,27,150,42,19,51,154,37*43
$GPGSV,3,3,10,20,45,258,36,25,12,305,19*7B
$GPGLL,3733.36846,N,12712.11713,E,065051.00,A,A*67
$GPRMC,065052.00,A,3733.36656,N,12712.11830,E,8.205,154.38,180524,,,A*6C
$GPVTG,154.38,T,,M,8.205,N,15.196,K,A*03
$GPGGA,065052.00,3733.36656,N,12712.11830,E,1,07,1.34,42.7,M,18.9,M,,*60
$GPGSA,A,3,06,11,19,09,20,17,04,,,,,,2.74,1.34,2.38*0B
$GPGSV,3,1,10,04,18,043,31,05,,,31,06,63,047,28,09,45,078,39*42
$GPGSV,3,2,10,11,55,317,42,12,,,36,17,27,150,34,19,51,154,31*42
$GPGSV,3,3,10,20,45,258,39,25,12,305,16*7B
$GPGLL,3733.36656,N,12712.11830,E,065052.00,A,A*65
$GPRMC,065053.00,A,3733.36432,N,12712.11970,E,9.116,151.88,180524,,,A*66
$GPVTG,151.88,T,,M,9.116,N,16.883,K,A*03
$GPGGA,065053.00,3733.36432,N,12712.11970,E,1,07,1.34,42.9,M,18.9,M,,*6A
$GPGSA,A,3,06,11,19,09,20,17,04,,,,,,2.73,1.34,2.38*0C
$GPGSV,3,1,10,04,18,043,24,05,,,29,06,63,047,28,09,45,078,39*4F
$GPGSV,3,2,10,11,55,317,39,12,,,30,17,27,150,30,19,51,154,35*48
$GPGSV,3,3,10,20,45,258,39,25,12,305,12*7F
$GPGLL,3733.36432,N,12712.11970,E,065053.00,A,A*61
$GPRMC,065054.00,A,3733.36198,N,12712.12087,E,8.701,156.24,180524,,,A*66
$GPVTG,156.24,T,,M,8.701,N,16.114,K,A*04
$GPGGA,065054.00,3733.36198,N,12712.12087,E,1,07,1.11,43.2,M,18.9,M,,*67
$GPGSA,A,3,06,11,19,09,20,17,04,,,,,,2.05,1.11,1.73*06
$GPGSV,3,1,11,04,18,043,31,05,,,20,06,63,047,28,09,45,078,38*42
$GPGSV,3,2,11,11,55,317,40,12,,,30,17,27,150,29,19,51,154,31*4B
$GPGSV,3,3,11,20,45,258,40,25,12,305,13,50,43,152,35*43
$GPGLL,3733.36198,N,12712.12087,E,065054.00,A,A*61
$GPRMC,065055.00,A,3733.36010,N,12712.12171,E,6.047,157.61,180524,,,A*65
$GPVTG,157.61,T,,M,6.047,N,11.199,K,A*0D
$GPGGA,065055.00,3733.36010,N,12712.12171,E,1,07,1.11,43.6,M,18.9,M,,*6B
$GPGSA,A,3,06,11,19,09,20,17,04,,,,,,2.05,1.11,1.72*07
$GPGSV,3,1,11,04,18,043,42,05,,,20,06,63,047,32,09,45,078,40*42
$GPGSV,3,2,11,11,55,317,43,12,,,29,17,27,150,31,19,51,154,33*4B
$GPGSV,3,3,11,20,45,258,40,25,12,305,14,50,43,152,28*48
$GPGLL,3733.36010,N,12712.12171,E,065055.00,A,A*69
$GPRMC,065056.00,A,3733.35847,N,12712.12231,E,5.650,161.32,180524,,,A*68
$GPVTG,161.32,T,,M,5.650,N,10.463,K,A*0C
$GPGGA,065056.00,3733.35847,N,12712.12231,E,1,07,1.37,43.9,M,18.9,M,,*6D
$GPGSA,A,3,06,11,19,09,20,17,04,,,,,,3.05,1.37,2.73*00
$GPGSV,3,1,11,04,18,043,31,05,,,20,06,63,047,27,09,45,078,34*41
$GPGSV,3,2,11,11,55,317,43,12,,,27,17,27,150,34,19,51,154,36*45
$GPGSV,3,3,11,20,45,258,39,25,12,305,15,50,43,152,27*48
$GPGLL,3733.35847,N,12712.12231,E,065056.00,A,A*64
$GPRMC,065057.00,A,3733.35686,N,12712.12225,E,5.863,178.23,180524,,,A*69
$GPVTG,178.23,T,,M,5.863,N,10.858,K,A*0E
$GPGGA,065057.00,3733.35686,N,12712.12225,E,1,07,1.37,43.8,M,18.9,M,,*6B
$GPGSA,A,3,06,11,19,09,20,17,04,,,,,,3.05,1.37,2.73*00
$GPGSV,3,1,11,04,18,043,23,05,,,20,06,63,047,38,09,45,078,34*4C
$GPGSV,3,2,11,11,55,317,35,12,,,27,17,27,150,25,19,51,154,40*45
$GPGSV,3,3,11,20,45,258,35,25,12,305,15,50,43,152,29*4A
$GPGLL,3733.35686,N,12712.12225,E,065057.00,A,A*63
$GPRMC,065058.00,A,3733.35527,N,12712.12141,E,6.194,201.09,180524,,,A*68
$GPVTG,201.09,T,,M,6.194,N,11.470,K,A*0E
$GPGGA,065058.00,3733.35527,N,12712.12141,E,1,07,1.37,43.0,M,18.9,M,,*65
$GPGSA,A,3,06,11,19,09,20,17,04,,,,,,3.05,1.37,2.73*00
$GPGSV,3,1,11,04,18,043,23,05,,,22,06,63,047,38,09,45,078,38*42
$GPGSV,3,2,11,11,55,317,39,12,,,35,17,27,150,25,19,51,154,41*4B
$GPGSV,3,3,11,20,45,258,41,25,12,305,15,50,43,152,36*47
$GPGLL,3733.35527,N,12712.12141,E,065058.00,A,A*65
$GPRMC,065059.00,A,3733.35389,N,12712.11961,E,7.620,221.33,180524,,,A*60
$GPVTG,221.33,T,,M,7.620,N,14.112,K,A*08
$GPGGA,065059.00,3733.35389,N,12712.11961,E,1,07,1.11,42.9,M,18.9,M,,*63
$GPGSA,A,3,06,11,19,09,20,17,04,,,,,,2.05,1.11,1.72*07
$GPGSV,3,1,11,04,18,043,23,05,,,21,06,63,047,31,09,45,078,33*43
$GPGSV,3,2,11,11,55,317,35,12,,,27,17,27,150,24,19,51,154,37*44
$GPGSV,3,3,11,20,45,258,30,25,12,305,15,50,43,152,34*43
$GPGLL,3733.35389,N,12712.11961,E,065059.00,A,A*6F
$GPRMC,065100.00,A,3733.35220,N,12712.11690,E,10.069,230.98,180524,,,A*52
$GPVTG,230.98,T,,M,10.069,N,18.648,K,A*30
$GPGGA,065100.00,3733.35220,N,12712.11690,E,1,07,1.35,42.2,M,18.9,M,,*60
$GPGSA,A,3,06,11,19,09,20,17,04,,,,,,2.60,1.35,2.22*04
$GPGSV,3,1,11,04,18,043,31,05,,,21,06,63,047,38,09,45,078,27*4C
$GPGSV,3,2,11,11,55,317,36,12,,,27,17,27,150,23,19,51,154,36*41
$GPGSV,3,3,11,20,45,258,38,25,12,305,14,50,43,152,36*48
$GPGLL,3733.35220,N,12712.11690,E,065100.00,A,A*61
$GPRMC,065101.00,A,3733.35004,N,12712.11355,E,12.213,231.13,180524,,,A*54
$GPVTG,231.13,T,,M,12.213,N,22.618,K,A*33
$GPGGA,065101.00,3733.35004,N,12712.11355,E,1,07,1.35,41.8,M,18.9,M,,*60
$GPGSA,A,3,06,11,19,09,20,17,04,,,,,,2.60,1.35,2.22*04
$GPGSV,3,1,11,04,18,043,31,05,,,23,06,63,047,40,09,45,078,25*43
$GPGSV,3,2,11,11,55,317,39,12,,,26,17,27,150,22,19,51,154,36*4E
$GPGSV,3,3,11,20,45,258,38,25,12,305,15,50,43,152,36*49
$GPGLL,3733.35004,N,12712.11355,E,065101.00,A,A*68
$GPRMC,065102.00,A,3733.34771,N,12712.11024,E,12.683,227.13,180524,,,A*5C
$GPVTG,227.13,T,,M,12.683,N,23.489,K,A*32
$GPGGA,065102.00,3733.34771,N,12712.11024,E,1,07,1.08,42.5,M,18.9,M,,*62
$GPGSA,A,3,06,11,19,09,20,17,04,,,,,,1.86,1.08,1.51*06
$GPGSV,3,1,11,04,18,043,29,05,,,30,06,63,047,38,09,45,078,26*44
$GPGSV,3,2,11,11,55,317,31,12,,,26,17,27,150,24,19,51,154,40*41
$GPGSV,3,3,11,20,45,258,31,25,12,305,16,50,43,152,38*4D
$GPGLL,3733.34771,N,12712.11024,E,065102.00,A,A*6A
$GPRMC,065103.00,A,3733.34541,N,12712.10684,E,12.884,227.20,180524,,,A*58
$GPVTG,227.20,T,,M,12.884,N,23.862,K,A*32
$GPGGA,065103.00,3733.34541,N,12712.10684,E,1,07,1.08,42.2,M,18.9,M,,*68
$GPGSA,A,3,06,11,19,09,20,17,04,,,,,,1.86,1.08,1.51*06
$GPGSV,3,1,11,04,18,043,29,05,,,41,06,63,047,38,09,45,078,27*43
$GPGSV,3,2,11,11,55,317,25,12,,,26,17,27,150,27,19,51,154,40*47
$GPGSV,3,3,11,20,45,258,25,25,12,305,16,50,43,152,38*48
$GPGLL,3733.34541,N,12712.10684,E,065103.00,A,A*67
$GPRMC,065104.00,A,3733.34279,N,12712.10381,E,13.288,223.70,180524,,,A*55
$GPVTG,223.70,T,,M,13.288,N,24.609,K,A*30
$GPGGA,065104.00,3733.34279,N,12712.10381,E,1,07,1.02,41.9,M,18.9,M,,*61
$GPGSA,A,3,06,11,19,09,20,17,04,,,,,,1.78,1.02,1.46*0B
$GPGSV,3,1,11,04,18,043,28,05,,,25,06,63,047,38,09,45,078,31*47
$GPGSV,3,2,11,11,55,317,24,12,,,26,17,27,150,28,19,51,154,40*49
$GPGSV,3,3,11,20,45,258,26,25,12,305,17,50,43,152,35*47
$GPGLL,3733.34279,N,12712.10381,E,065104.00,A,A*6C
$GPRMC,065105.00,A,3733.33995,N,12712.10146,E,12.715,217.90,180524,,,A*5A
$GPVTG,217.90,T,,M,12.715,N,23.549,K,A*39
$GPGGA,065105.00,3733.33995,N,12712.10146,E,1,07,1.02,43.0,M,18.9,M,,*6C
$GPGSA,A,3,06,11,19,09,20,17,04,,,,,,1.78,1.02,1.46*0B
$GPGSV,3,1,11,04,18,043,30,05,,,25,06,63,047,30,09,45,077,35*4D
$GPGSV,3,2,11,11,55,317,28,12,,,32,17,27,150,27,19,51,154,40*4F
$GPGSV,3,3,11,20,45,258,26,25,12,305,20,50,43,152,39*4F
$GPGLL,3733.33995,N,12712.10146,E,065105.00,A,A*6A
$GPRMC,065106.00,A,3733.33729,N,12712.09868,E,12.733,217.74,180524,,,A*53
$GPVTG,217.74,T,,M,12.733,N,23.582,K,A*30
$GPGGA,065106.00,3733.33729,N,12712.09868,E,1,07,1.02,43.6,M,18.9,M,,*6D
$GPGSA,A,3,06,11,19,09,20,17,04,,,,,,1.78,1.02,1.46*0B
$GPGSV,3,1,11,04,18,043,29,05,,,25,06,63,047,29,09,45,077,39*41
$GPGSV,3,2,11,11,55,318,26,12,,,27,17,27,150,35,19,51,154,40*49
$GPGSV,3,3,11,20,45,258,26,25,12,305,18,50,43,152,38*45
$GPGLL,3733.33729,N,12712.09868,E,065106.00,A,A*6D
$GPRMC,065107.00,A,3733.33465,N,12712.09622,E,11.354,217.85,180524,,,A*51
$GPVTG,217.85,T,,M,11.354,N,21.027,K,A*30
$GPGGA,065107.00,3733.33465,N,12712.09622,E,1,07,1.34,43.9,M,18.9,M,,*6D
$GPGSA,A,3,06,11,19,09,20,17,04,,,,,,2.73,1.34,2.38*0C
$GPGSV,3,1,11,04,18,043,30,05,,,25,06,63,047,36,09,45,077,32*4C
$GPGSV,3,2,11,11,55,318,26,12,,,35,17,27,150,26,19,51,154,40*48
$GPGSV,3,3,11,20,45,258,24,25,12,305,17,50,43,152,36*46
$GPGLL,3733.33465,N,12712.09622,E,065107.00,A,A*67
$GPRMC,065108.00,A,3733.33231,N,12712.09379,E,9.845,218.48,180524,,,A*6E
$GPVTG,218.48,T,,M,9.845,N,18.233,K,A*01
$GPGGA,065108.00,3733.33231,N,12712.09379,E,1,06,1.34,45.1,M,18.9,M,,*61
$GPGSA,A,3,06,11,19,09,20,17,,,,,,,2.73,1.34,2.38*08
$GPGSV,3,1,11,04,18,043,,05,,,26,06,63,047,36,09,45,077,39*47
$GPGSV,3,2,11,11,55,318,27,12,,,26,17,27,150,27,19,51,154,38*45
$GPGSV,3,3,11,20,45,258,23,25,12,305,16,50,43,152,32*44
$GPGLL,3733.33231,N,12712.09379,E,065108.00,A,A*64
$GPRMC,065109.00,A,3733.33072,N,12712.09200,E,6.461,219.74,180524,,,A*6E
$GPVTG,219.74,T,,M,6.461,N,11.966,K,A*08
$GPGGA,065109.00,3733.33072,N,12712.09200,E,1,07,1.02,45.6,M,18.9,M,,*69
$GPGSA,A,3,06,11,19,09,20,17,04,,,,,,1.78,1.02,1.46*0B
$GPGSV,3,1,11,04,18,043,28,05,,,28,06,63,047,39,09,45,077,39*4C
$GPGSV,3,2,11,11,55,318,26,12,,,26,17,27,150,44,19,51,154,37*4E
$GPGSV,3,3,11,20,45,258,24,25,12,305,17,50,43,152,36*46
$GPGLL,3733.33072,N,12712.09200,E,065109.00,A,A*6F
$GPRMC,065110.00,A,3733.32946,N,12712.09026,E,5.291,219.23,180524,,,A*67
$GPVTG,219.23,T,,M,5.291,N,9.800,K,A*38
$GPGGA,065110.00,3733.32946,N,12712.09026,E,1,07,1.02,45.1,M,18.9,M,,*6F
$GPGSA,A,3,06,11,19,09,20,17,04,,,,,,1.78,1.02,1.46*0B
$GPGSV,3,1,11,04,18,043,26,05,,,30,06,63,047,39,09,45,077,39*4B
$GPGSV,3,2,11,11,55,318,26,12,,,25,17,27,150,35,19,51,154,39*45
$GPGSV,3,3,11,20,45,258,41,25,12,305,15,50,43,152,39*48
$GPGLL,3733.32946,N,12712.09026,E,065110.00,A,A*6E
$GPRMC,065111.00,A,3733.32831,N,12712.08820,E,5.667,217.66,180524,,,A*6A
$GPVTG,217.66,T,,M,5.667,N,10.495,K,A*02
$GPGGA,065111.00,3733.32831,N,12712.08820,E,1,07,1.11,44.0,M,18.9,M,,*62
$GPGSA,A,3,06,11,19,09,20,17,04,,,,,,2.05,1.11,1.72*07
$GPGSV,3,1,11,04,18,043,26,05,,,29,06,63,047,31,09,45,077,39*4B
$GPGSV,3,2,11,11,55,318,24,12,,,31,17,27,150,40,19,51,154,38*41
$GPGSV,3,3,11,20,45,258,43,25,12,305,14,50,43,152,38*4A
$GPGLL,3733.32831,N,12712.08820,E,065111.00,A,A*61
$GPRMC,065112.00,A,3733.32707,N,12712.08640,E,6.681,224.66,180524,,,A*60
$GPVTG,224.66,T,,M,6.681,N,12.374,K,A*03
$GPGGA,065112.00,3733.32707,N,12712.08640,E,1,07,1.02,45.8,M,18.9,M,,*68
$GPGSA,A,3,06,11,19,09,20,17,04,,,,,,1.78,1.02,1.46*0B
$GPGSV,3,1,11,04,18,043,25,05,,,34,06,63,047,32,09,45,077,42*4B
$GPGSV,3,2,11,11,55,318,24,12,,,29,17,27,150,33,19,51,154,39*4D
$GPGSV,3,3,11,20,45,258,41,25,12,305,14,50,43,152,38*48
$GPGLL,3733.32707,N,12712.08640,E,065112.00,A,A*60
$GPRMC,065113.00,A,3733.32599,N,12712.08434,E,6.557,234.56,180524,,,A*6F
$GPVTG,234.56,T,,M,6.557,N,12.144,K,A*08
$GPGGA,065113.00,3733.32599,N,12712.08434,E,1,07,1.02,44.7,M,18.9,M,,*63
$GPGSA,A,3,06,11,19,09,20,17,04,,,,,,1.78,1.02,1.46*0B
$GPGSV,3,1,11,04,18,043,26,05,,,29,06,63,047,40,09,45,077,38*4C
$GPGSV,3,2,11,11,55,318,23,12,,,36,17,27,150,28,19,51,154,40*40
$GPGSV,3,3,11,20,45,258,36,25,12,305,16,50,43,152,41*44
$GPGLL,3733.32599,N,12712.08434,E,065113.00,A,A*65
$GPRMC,065114.00,A,3733.32560,N,12712.08263,E,4.968,247.98,180524,,,A*6E
$GPVTG,247.98,T,,M,4.968,N,9.201,K,A*34
$GPGGA,065114.00,3733.32560,N,12712.08263,E,1,07,1.09,44.8,M,18.9,M,,*62
$GPGSA,A,3,06,11,19,09,20,17,04,,,,,,1.86,1.09,1.51*07
$GPGSV,3,1,11,04,18,043,26,05,,,29,06,63,047,37,09,45,077,40*43
$GPGSV,3,2,11,11,55,318,43,12,,,39,17,27,150,27,19,51,154,36*47
$GPGSV,3,3,11,20,45,258,35,25,12,305,18,50,43,152,31*4E
$GPGLL,3733.32560,N,12712.08263,E,065114.00,A,A*60
$GPRMC,065115.00,A,3733.32596,N,12712.08062,E,6.717,268.91,180524,,,A*65
$GPVTG,268.91,T,,M,6.717,N,12.439,K,A*03
$GPGGA,065115.00,3733.32596,N,12712.08062,E,1,07,1.02,44.4,M,18.9,M,,*6E
$GPGSA,A,3,06,11,19,09,20,17,04,,,,,,1.78,1.02,1.46*0B
$GPGSV,3,1,11,04,18,043,37,05,,,32,06,63,047,44,09,45,077,36*4C
$GPGSV,3,2,11,11,55,318,38,12,,,36,17,27,150,25,19,51,154,27*46
$GPGSV,3,3,11,20,45,258,40,25,12,305,18,50,43,152,30*4D
$GPGLL,3733.32596,N,12712.08062,E,065115.00,A,A*6B
$GPRMC,065116.00,A,3733.32703,N,12712.07834,E,8.392,292.17,180524,,,A*60
$GPVTG,292.17,T,,M,8.392,N,15.542,K,A*05
$GPGGA,065116.00,3733.32703,N,12712.07834,E,1,06,1.09,43.5,M,18.9,M,,*6B
$GPGSA,A,3,06,11,19,09,20,04,,,,,,,1.86,1.09,1.51*01
$GPGSV,3,1,11,04,18,043,22,05,,,27,06,63,047,30,09,45,077,40*4E
$GPGSV,3,2,11,11,55,318,43,12,,,39,17,27,150,,19,51,154,35*41
$GPGSV,3,3,11,20,45,258,40,25,12,305,17,50,43,152,37*45
$GPGLL,3733.32703,N,12712.07834,E,065116.00,A,A*62
$GPRMC,065117.00,A,3733.32856,N,12712.07557,E,9.243,296.50,180524,,,A*6D
$GPVTG,296.50,T,,M,9.243,N,17.118,K,A*07
$GPGGA,065117.00,3733.32856,N,12712.07557,E,1,06,1.09,43.7,M,18.9,M,,*6F
$GPGSA,A,3,06,11,19,09,20,04,,,,,,,1.86,1.09,1.51*01
$GPGSV,3,1,11,04,18,043,20,05,,,38,06,63,047,25,09,45,077,23*43
$GPGSV,3,2,11,11,55,318,43,12,,,42,17,27,150,25,19,51,154,31*4E
$GPGSV,3,3,11,20,45,258,40,25,12,305,16,50,43,152,35*46
$GPGLL,3733.32856,N,12712.07557,E,065117.00,A,A*64
$GPRMC,065118.00,A,3733.33037,N,12712.07321,E,9.482,306.53,180524,,,A*6B
$GPVTG,306.53,T,,M,9.482,N,17.560,K,A*0C
$GPGGA,065118.00,3733.33037,N,12712.07321,E,1,07,1.02,42.9,M,18.9,M,,*6C
$GPGSA,A,3,06,11,19,09,20,17,04,,,,,,1.78,1.02,1.46*0B
$GPGSV,3,1,11,04,18,043,19,05,,,27,06,63,047,26,09,45,077,22*45
$GPGSV,3,2,11,11,55,318,43,12,,,41,17,27,150,35,19,51,154,31*4C
$GPGSV,3,3,11,20,45,258,40,25,12,305,20,50,43,152,39*4F
$GPGLL,3733.33037,N,12712.07321,E,065118.00,A,A*62
$GPRMC,065119.00,A,3733.33192,N,12712.07041,E,9.837,308.68,180524,,,A*65
$GPVTG,308.68,T,,M,9.837,N,18.218,K,A*0F
$GPGGA,065119.00,3733.33192,N,12712.07041,E,1,07,1.02,43.5,M,18.9,M,,*6B
$GPGSA,A,3,06,11,19,09,20,17,04,,,,,,1.78,1.02,1.46*0B
$GPGSV,3,1,11,04,18,043,22,05,,,26,06,63,047,41,09,45,077,21*4E
$GPGSV,3,2,11,11,55,318,43,12,,,36,17,27,150,34,19,51,154,37*4B
$GPGSV,3,3,11,20,45,258,41,25,12,305,20,50,43,152,31*46
$GPGLL,3733.33192,N,12712.07041,E,065119.00,A,A*68
$GPRMC,065120.00,A,3733.33360,N,12712.06817,E,9.002,310.15,180524,,,A*67
$GPVTG,310.15,T,,M,9.002,N,16.671,K,A*07
$GPGGA,065120.00,3733.33360,N,12712.06817,E,1,07,1.02,43.7,M,18.9,M,,*66
$GPGSA,A,3,06,11,19,09,20,17,04,,,,,,1.78,1.02,1.45*08
$GPGSV,3,1,11,04,18,043,24,05,,,25,06,63,047,40,09,45,077,22*49
$GPGSV,3,2,11,11,55,318,42,12,,,28,17,27,150,36,19,51,154,37*47
$GPGSV,3,3,11,20,45,258,42,25,12,305,18,50,43,152,31*4E
$GPGLL,3733.33360,N,12712.06817,E,065120.00,A,A*67
$GPRMC,065121.00,A,3733.33477,N,12712.06566,E,8.198,307.45,180524,,,A*6C
$GPVTG,307.45,T,,M,8.198,N,15.182,K,A*0F
$GPGGA,065121.00,3733.33477,N,12712.06566,E,1,07,1.02,43.6,M,18.9,M,,*6C
$GPGSA,A,3,06,11,19,09,20,17,04,,,,,,1.78,1.02,1.45*08
$GPGSV,3,1,11,04,18,043,30,05,,,25,06,63,047,43,09,45,077,30*4C
$GPGSV,3,2,11,11,55,318,43,12,,,43,17,27,150,29,19,51,154,32*40
$GPGSV,3,3,11,20,45,258,42,25,12,305,17,50,43,152,30*40
$GPGLL,3733.33477,N,12712.06566,E,065121.00,A,A*6C
$GPRMC,065122.00,A,3733.33617,N,12712.06306,E,8.449,308.16,180524,,,A*6B
$GPVTG,308.16,T,,M,8.449,N,15.647,K,A*01
$GPGGA,065122.00,3733.33617,N,12712.06306,E,1,07,1.02,43.8,M,18.9,M,,*65
$GPGSA,A,3,06,11,19,09,20,17,04,,,,,,1.78,1.02,1.45*08
$GPGSV,3,1,11,04,18,043,23,05,,,36,06,63,047,43,09,45,077,31*4D
$GPGSV,3,2,11,11,55,318,44,12,,,36,17,27,150,34,19,51,154,32*49
$GPGSV,3,3,11,20,45,258,43,25,12,305,20,50,43,152,30*45
$GPGLL,3733.33617,N,12712.06306,E,065122.00,A,A*6B
$GPRMC,065123.00,A,3733.33768,N,12712.06055,E,8.427,305.78,180524,,,A*6B
$GPVTG,305.78,T,,M,8.427,N,15.607,K,A*08
$GPGGA,065123.00,3733.33768,N,12712.06055,E,1,07,1.02,43.2,M,18.9,M,,*62
$GPGSA,A,3,06,11,19,09,20,17,04,,,,,,1.78,1.02,1.45*08
$GPGSV,3,1,11,04,18,043,23,05,,,33,06,63,047,42,09,45,077,27*4E
$GPGSV,3,2,11,11,55,318,43,12,,,30,17,27,150,32,19,51,154,32*4E
$GPGSV,3,3,11,20,45,258,39,25,12,305,21,50,43,152,29*41
$GPGLL,3733.33768,N,12712.06055,E,065123.00,A,A*66
$GPRMC,065124.00,A,3733.33906,N,12712.05807,E,8.377,307.28,180524,,,A*63
$GPVTG,307.28,T,,M,8.377,N,15.515,K,A*0D
$GPGGA,065124.00,3733.33906,N,12712.05807,E,1,07,1.11,43.6,M,18.9,M,,*69
$GPGSA,A,3,06,11,19,09,20,17,04,,,,,,2.05,1.11,1.72*07
$GPGSV,3,1,11,04,18,043,29,05,,,23,06,63,047,41,09,45,077,31*41
$GPGSV,3,2,11,11,55,318,42,12,,,40,17,27,150,33,19,51,154,30*4B
$GPGSV,3,3,11,20,45,258,42,25,12,305,20,50,43,152,30*44
$GPGLL,3733.33906,N,12712.05807,E,065124.00,A,A*6B
$GPRMC,065125.00,A,3733.34048,N,12712.05589,E,7.637,310.53,180524,,,A*69
$GPVTG,310.53,T,,M,7.637,N,14.145,K,A*09
$GPGGA,065125.00,3733.34048,N,12712.05589,E,1,07,1.37,43.6,M,18.9,M,,*63
$GPGSA,A,3,06,11,19,09,20,17,04,,,,,,3.04,1.37,2.72*00
$GPGSV,3,1,11,04,18,043,22,05,,,23,06,63,047,40,09,45,077,26*4D
$GPGSV,3,2,11,11,55,318,42,12,,,40,17,27,150,34,19,51,154,34*48
$GPGSV,3,3,11,20,45,258,45,25,12,305,17,50,43,152,30*47
$GPGLL,3733.34048,N,12712.05589,E,065125.00,A,A*65
$GPRMC,065126.00,A,3733.34192,N,12712.05395,E,7.234,312.83,180524,,,A*6F
$GPVTG,312.83,T,,M,7.234,N,13.397,K,A*0B
$GPGGA,065126.00,3733.34192,N,12712.05395,E,1,07,1.02,43.0,M,18.9,M,,*6D
$GPGSA,A,3,06,11,19,09,20,17,04,,,,,,1.78,1.02,1.45*08
$GPGSV,3,1,11,04,18,043,24,05,,,31,06,63,047,42,09,45,077,26*4A
$GPGSV,3,2,11,11,55,318,43,12,,,42,17,27,150,30,19,51,154,34*4F
$GPGSV,3,3,11,20,45,258,41,25,12,305,15,50,43,152,31*40
$GPGLL,3733.34192,N,12712.05395,E,065126.00,A,A*6B
$GPRMC,065127.00,A,3733.34343,N,12712.05217,E,7.177,316.56,180524,,,A*63
$GPVTG,316.56,T,,M,7.177,N,13.293,K,A*06
$GPGGA,065127.00,3733.34343,N,12712.05217,E,1,07,1.02,42.7,M,18.9,M,,*6F
$GPGSA,A,3,06,11,19,09,20,17,04,,,,,,1.78,1.02,1.45*08
$GPGSV,3,1,10,04,18,043,21,05,,,25,06,63,047,42,09,45,077,34*48
$GPGSV,3,2,10,11,55,318,39,12,,,36,17,27,150,34,19,51,154,30*40
$GPGSV,3,3,10,20,45,258,41,25,12,305,13*71
$GPGLL,3733.34343,N,12712.05217,E,065127.00,A,A*6F
$GPRMC,065128.00,A,3733.34502,N,12712.05032,E,7.672,321.45,180524,,,A*6E
$GPVTG,321.45,T,,M,7.672,N,14.209,K,A*06
$GPGGA,065128.00,3733.34502,N,12712.05032,E,1,07,1.02,43.8,M,18.9,M,,*68
$GPGSA,A,3,06,11,19,09,20,17,04,,,,,,1.78,1.02,1.45*08
$GPGSV,3,1,10,04,18,043,35,05,,,24,06,63,047,43,09,45,077,34*4D
$GPGSV,3,2,10,11,55,318,40,12,,,43,17,27,150,35,19,51,154,24*48
$GPGSV,3,3,10,20,45,258,43,25,12,305,09*78
$GPGLL,3733.34502,N,12712.05032,E,065128.00,A,A*66
$GPRMC,065129.00,A,3733.34672,N,12712.04869,E,7.558,323.84,180524,,,A*68
$GPVTG,323.84,T,,M,7.558,N,13.998,K,A*06
$GPGGA,065129.00,3733.34672,N,12712.04869,E,1,06,1.06,44.0,M,18.9,M,,*60
$GPGSA,A,3,06,11,09,20,17,04,,,,,,,1.83,1.06,1.49*0C
$GPGSV,3,1,10,04,18,043,31,05,,,30,06,63,047,44,09,45,077,35*4A
$GPGSV,3,2,10,11,55,318,38,12,,,38,17,27,150,32,19,51,154,*4A
$GPGSV,3,3,10,20,45,258,40,25,12,305,08*7A
$GPGLL,3733.34672,N,12712.04869,E,065129.00,A,A*64
$GPRMC,065130.00,A,3733.34853,N,12712.04708,E,7.954,326.12,180524,,,A*6F
$GPVTG,326.12,T,,M,7.954,N,14.731,K,A*06
$GPGGA,065130.00,3733.34853,N,12712.04708,E,1,06,1.06,43.8,M,18.9,M,,*62
$GPGSA,A,3,06,11,09,20,17,04,,,,,,,1.83,1.06,1.49*0C
$GPGSV,3,1,10,04,18,043,27,05,,,25,06,63,047,42,09,45,077,35*4F
$GPGSV,3,2,10,11,55,318,39,12,,,27,17,27,150,32,19,51,154,24*43
$GPGSV,3,3,10,20,45,258,39,25,12,305,08*74
$GPGLL,3733.34853,N,12712.04708,E,065130.00,A,A*69
$GPRMC,065131.00,A,3733.35047,N,12712.04555,E,8.034,329.38,180524,,,A*6F
$GPVTG,329.38,T,,M,8.034,N,14.878,K,A*03
$GPGGA,065131.00,3733.35047,N,12712.04555,E,1,07,1.02,43.5,M,18.9,M,,*6D
$GPGSA,A,3,06,11,19,09,20,17,04,,,,,,1.78,1.02,1.45*08
$GPGSV,3,1,10,04,17,043,26,05,,,23,06,63,047,41,09,45,077,39*48
$GPGSV,3,2,10,11,55,318,40,12,,,27,17,27,150,32,19,51,154,30*48
$GPGSV,3,3,10,20,45,258,41,25,12,305,08*7B
$GPGLL,3733.35047,N,12712.04555,E,065131.00,A,A*6E
$GPRMC,065132.00,A,3733.35252,N,12712.04428,E,8.118,332.96,180524,,,A*60
$GPVTG,332.96,T,,M,8.118,N,15.035,K,A*02
$GPGGA,065132.00,3733.35252,N,12712.04428,E,1,07,1.02,43.0,M,18.9,M,,*66
$GPGSA,A,3,06,11,19,09,20,17,04,,,,,,1.78,1.02,1.45*08
$GPGSV,3,1,10,04,17,043,27,05,,,24,06,63,048,39,09,45,077,40*40
$GPGSV,3,2,10,11,55,318,39,12,,,28,17,27,150,29,19,51,154,35*46
$GPGSV,3,3,10,20,45,258,40,25,12,305,08*7A
$GPGLL,3733.35252,N,12712.04428,E,065132.00,A,A*60
$GPRMC,065133.00,A,3733.35463,N,12712.04306,E,8.359,336.72,180524,,,A*67
$GPVTG,336.72,T,,M,8.359,N,15.481,K,A*00
$GPGGA,065133.00,3733.35463,N,12712.04306,E,1,07,1.02,43.2,M,18.9,M,,*6A
$GPGSA,A,3,06,11,19,09,20,17,04,,,,,,1.78,1.02,1.45*08
$GPGSV,3,1,09,04,17,043,25,06,63,048,37,09,45,077,41,11,55,318,40*78
$GPGSV,3,2,09,12,,,44,17,27,150,29,19,51,154,35,20,45,258,35*4E
$GPGSV,3,3,09,25,12,305,*42
$GPGLL,3733.35463,N,12712.04306,E,065133.00,A,A*6E
$GPRMC,065134.00,A,3733.35681,N,12712.04193,E,8.260,337.36,180524,,,A*6A
$GPVTG,337.36,T,,M,8.260,N,15.297,K,A*0B
$GPGGA,065134.00,3733.35681,N,12712.04193,E,1,07,1.02,43.6,M,18.9,M,,*69
$GPGSA,A,3,06,11,19,09,20,17,04,,,,,,1.78,1.02,1.45*08
$GPGSV,3,1,09,04,17,043,31,06,63,048,29,09,45,077,36,11,55,318,40*72
$GPGSV,3,2,09,12,,,26,17,27,150,37,19,51,154,38,20,45,258,39*44
$GPGSV,3,3,09,25,12,305,*42
$GPGLL,3733.35681,N,12712.04193,E,065134.00,A,A*69
$GPRMC,065135.00,A,3733.35901,N,12712.04090,E,8.322,335.73,180524,,,A*6A
$GPVTG,335.73,T,,M,8.322,N,15.413,K,A*05
$GPGGA,065135.00,3733.35901,N,12712.04090,E,1,07,1.02,42.6,M,18.9,M,,*6C
$GPGSA,A,3,06,11,19,09,20,17,04,,,,,,1.78,1.02,1.45*08
$GPGSV,3,1,09,04,17,043,35,06,63,048,33,09,45,077,40,11,55,318,40*7C
$GPGSV,3,2,09,12,,,25,17,26,150,33,19,51,154,38,20,45,258,26*4C
$GPGSV,3,3,09,25,12,305,*42
$GPGLL,3733.35901,N,12712.04090,E,065135.00,A,A*6D
$GPRMC,065136.00,A,3733.36125,N,12712.03975,E,8.489,336.30,180524,,,A*63
$GPVTG,336.30,T,,M,8.489,N,15.722,K,A*06
$GPGGA,065136.00,3733.36125,N,12712.03975,E,1,07,1.02,42.7,M,18.9,M,,*66
$GPGSA,A,3,06,11,19,09,20,17,04,,,,,,1.78,1.02,1.45*08
$GPGSV,3,1,09,04,17,043,34,06,63,048,34,09,45,077,39,11,55,318,41*75
$GPGSV,3,2,09,12,,,25,17,26,150,35,19,51,154,40,20,45,258,26*45
$GPGSV,3,3,09,25,12,305,*42
$GPGLL,3733.36125,N,12712.03975,E,065136.00,A,A*66
$GPRMC,065137.00,A,3733.36356,N,12712.03877,E,8.827,340.48,180524,,,A*61
$GPVTG,340.48,T,,M,8.827,N,16.347,K,A*04
$GPGGA,065137.00,3733.36356,N,12712.03877,E,1,07,1.02,42.8,M,18.9,M,,*6D
$GPGSA,A,3,06,11,19,09,20,17,04,,,,,,1.78,1.02,1.45*08
$GPGSV,3,1,09,04,17,043,21,06,63,048,31,09,45,077,40,11,55,318,41*7A
$GPGSV,3,2,09,12,,,25,17,26,150,35,19,51,154,39,20,46,259,26*49
$GPGSV,3,3,09,25,12,305,*42
$GPGLL,3733.36356,N,12712.03877,E,065137.00,A,A*62
$GPRMC,065138.00,A,3733.36599,N,12712.03772,E,9.296,340.21,180524,,,A*6F
$GPVTG,340.21,T,,M,9.296,N,17.217,K,A*0F
$GPGGA,065138.00,3733.36599,N,12712.03772,E,1,07,1.02,42.7,M,18.9,M,,*62
$GPGSA,A,3,06,11,19,09,20,17,04,,,,,,1.78,1.02,1.45*08
$GPGSV,3,1,09,04,17,043,21,06,63,048,30,09,45,077,37,11,55,318,39*74
$GPGSV,3,2,09,12,,,25,17,26,150,32,19,51,154,38,20,46,259,34*4C
$GPGSV,3,3,09,25,12,305,*42
$GPGLL,3733.36599,N,12712.03772,E,065138.00,A,A*62
$GPRMC,065139.00,A,3733.36833,N,12712.03655,E,9.084,337.54,180524,,,A*64
$GPVTG,337.54,T,,M,9.084,N,16.823,K,A*00
$GPGGA,065139.00,3733.36833,N,12712.03655,E,1,07,1.02,43.0,M,18.9,M,,*6C
$GPGSA,A,3,06,11,19,09,20,17,04,,,,,,1.78,1.02,1.45*08
$GPGSV,3,1,09,04,17,043,29,06,63,048,28,09,45,077,34,11,55,318,37*78
$GPGSV,3,2,09,12,,,27,17,26,150,35,19,51,154,34,20,46,259,37*46
$GPGSV,3,3,09,25,12,305,*42
$GPGLL,3733.36833,N,12712.03655,E,065139.00,A,A*6A
$GPRMC,065140.00,A,3733.37067,N,12712.03516,E,9.207,332.25,180524,,,A*6C
$GPVTG,332.25,T,,M,9.207,N,17.052,K,A*05
$GPGGA,065140.00,3733.37067,N,12712.03516,E,1,07,1.02,43.1,M,18.9,M,,*6F
$GPGSA,A,3,06,11,19,09,20,17,04,,,,,,1.78,1.02,1.45*08
$GPGSV,3,1,09,04,17,043,31,06,63,048,38,09,45,077,42,11,55,318,41*70
$GPGSV,3,2,09,12,,,33,17,26,150,35,19,51,154,38,20,46,259,39*41
$GPGSV,3,3,09,25,12,305,*42
$GPGLL,3733.37067,N,12712.03516,E,065140.00,A,A*68
$GPRMC,065141.00,A,3733.37299,N,12712.03369,E,9.424,330.55,180524,,,A*62
$GPVTG,330.55,T,,M,9.424,N,17.452,K,A*03
$GPGGA,065141.00,3733.37299,N,12712.03369,E,1,07,1.02,43.2,M,18.9,M,,*60
$GPGSA,A,3,06,11,19,09,20,17,04,,,,,,1.78,1.02,1.45*08
$GPGSV,3,1,09,04,17,043,34,06,63,048,40,09,45,077,38,11,55,318,41*77
$GPGSV,3,2,09,12,,,41,17,26,150,32,19,51,154,35,20,46,259,39*4E
$GPGSV,3,3,09,25,12,305,*42
$GPGLL,3733.37299,N,12712.03369,E,065141.00,A,A*64
$GPRMC,065142.00,A,3733.37537,N,12712.03183,E,10.198,328.70,180524,,,A*50
$GPVTG,328.70,T,,M,10.198,N,18.887,K,A*3C
$GPGGA,065142.00,3733.37537,N,12712.03183,E,1,07,1.02,42.7,M,18.9,M,,*62
$GPGSA,A,3,06,11,19,09,20,17,04,,,,,,1.78,1.02,1.45*08
$GPGSV,3,1,09,04,17,043,23,06,63,048,42,09,45,077,39,11,55,318,41*72
$GPGSV,3,2,09,12,,,27,17,26,150,35,19,51,154,35,20,46,259,41*46
$GPGSV,3,3,09,25,12,305,*42
$GPGLL,3733.37537,N,12712.03183,E,065142.00,A,A*62
$GPRMC,065143.00,A,3733.37801,N,12712.02999,E,10.955,327.98,180524,,,A*5B
$GPVTG,327.98,T,,M,10.955,N,20.288,K,A*32
$GPGGA,065143.00,3733.37801,N,12712.02999,E,1,07,1.34,42.8,M,18.9,M,,*63
$GPGSA,A,3,06,11,19,09,20,17,04,,,,,,2.72,1.34,2.37*02
$GPGSV,3,1,09,04,17,043,23,06,63,048,42,09,45,077,39,11,55,318,40*73
$GPGSV,3,2,09,12,,,26,17,26,150,34,19,51,154,27,20,46,259,41*45
$GPGSV,3,3,09,25,12,305,*42
$GPGLL,3733.37801,N,12712.02999,E,065143.00,A,A*69
$GPRMC,065144.00,A,3733.38043,N,12712.02790,E,10.497,326.30,180524,,,A*5A
$GPVTG,326.30,T,,M,10.497,N,19.440,K,A*3A
$GPGGA,065144.00,3733.38043,N,12712.02790,E,1,07,1.02,42.7,M,18.9,M,,*68
$GPGSA,A,3,06,11,19,09,20,17,04,,,,,,1.78,1.02,1.45*08
$GPGSV,3,1,09,04,17,043,31,06,63,048,43,09,45,077,39,11,55,318,40*71
$GPGSV,3,2,09,12,,,38,17,26,150,31,19,51,154,26,20,46,259,40*4F
$GPGSV,3,3,09,25,12,305,*42
$GPGLL,3733.38043,N,12712.02790,E,065144.00,A,A*68
$GPRMC,065145.00,A,3733.38278,N,12712.02578,E,10.258,324.75,180524,,,A*53
$GPVTG,324.75,T,,M,10.258,N,18.998,K,A*35
$GPGGA,065145.00,3733.38278,N,12712.02578,E,1,07,1.02,42.2,M,18.9,M,,*62
$GPGSA,A,3,06,11,19,09,20,17,04,,,,,,1.78,1.02,1.45*08
$GPGSV,3,1,09,04,17,043,32,06,63,048,44,09,45,077,34,11,55,318,40*78
$GPGSV,3,2,09,12,,,44,17,26,150,34,19,51,154,31,20,46,259,41*46
$GPGSV,3,3,09,25,12,305,*42
$GPGLL,3733.38278,N,12712.02578,E,065145.00,A,A*67
$GPRMC,065146.00,A,3733.38515,N,12712.02342,E,10.971,321.24,180524,,,A*52
$GPVTG,321.24,T,,M,10.971,N,20.318,K,A*3D
$GPGGA,065146.00,3733.38515,N,12712.02342,E,1,07,1.02,42.1,M,18.9,M,,*61
$GPGSA,A,3,06,11,19,09,20,17,04,,,,,,1.78,1.02,1.45*08
$GPGSV,3,1,09,04,17,043,31,06,63,048,44,09,45,077,35,11,55,318,41*7B
$GPGSV,3,2,09,12,,,44,17,26,150,30,19,51,154,26,20,46,259,43*46
$GPGSV,3,3,09,25,12,305,*42
$GPGLL,3733.38515,N,12712.02342,E,065146.00,A,A*67
$GPRMC,065147.00,A,3733.38746,N,12712.02073,E,11.392,316.41,180524,,,A*57
$GPVTG,316.41,T,,M,11.392,N,21.098,K,A*36
$GPGGA,065147.00,3733.38746,N,12712.02073,E,1,07,1.02,41.7,M,18.9,M,,*60
$GPGSA,A,3,06,11,19,09,20,17,04,,,,,,1.77,1.02,1.45*07
$GPGSV,3,1,09,04,17,043,24,06,63,048,43,09,45,077,31,11,55,318,41*7C
$GPGSV,3,2,09,12,,,36,17,26,150,30,19,51,154,27,20,46,259,40*41
$GPGSV,3,3,09,25,12,305,*42
$GPGLL,3733.38746,N,12712.02073,E,065147.00,A,A*63
$GPRMC,065148.00,A,3733.38972,N,12712.01780,E,11.668,312.55,180524,,,A*58
$GPVTG,312.55,T,,M,11.668,N,21.609,K,A*39
$GPGGA,065148.00,3733.38972,N,12712.01780,E,1,07,1.02,41.0,M,18.9,M,,*69
$GPGSA,A,3,06,11,19,09,20,17,04,,,,,,1.77,1.02,1.45*07
$GPGSV,3,1,09,04,17,043,22,06,63,048,43,09,45,077,35,11,55,318,42*7D
$GPGSV,3,2,09,12,,,41,17,26,150,30,19,51,154,36,20,46,259,41*40
$GPGSV,3,3,09,25,12,305,21*41
$GPGLL,3733.38972,N,12712.01780,E,065148.00,A,A*6D
$GPRMC,065149.00,A,3733.39194,N,12712.01476,E,11.961,313.18,180524,,,A*5C
$GPVTG,313.18,T,,M,11.961,N,22.151,K,A*3E
$GPGGA,065149.00,3733.39194,N,12712.01476,E,1,07,1.02,40.7,M,18.9,M,,*65
$GPGSA,A,3,06,11,19,09,20,17,04,,,,,,1.77,1.02,1.45*07
$GPGSV,3,1,10,04,17,043,30,05,,,40,06,63,048,43,09,45,077,35*4B
$GPGSV,3,2,10,11,55,318,43,12,,,39,17,26,150,31,19,51,154,35*43
$GPGSV,3,3,10,20,46,259,45,25,12,305,18*7C
$GPGLL,3733.39194,N,12712.01476,E,065149.00,A,A*67
$GPRMC,065150.00,A,3733.39422,N,12712.01167,E,12.073,313.89,180524,,,A*58
$GPVTG,313.89,T,,M,12.073,N,22.359,K,A*35
$GPGGA,065150.00,3733.39422,N,12712.01167,E,1,07,1.02,40.6,M,18.9,M,,*61
$GPGSA,A,3,06,11,19,09,20,17,04,,,,,,1.77,1.02,1.45*07
$GPGSV,3,1,10,04,17,043,22,05,,,31,06,63,048,42,09,45,077,27*4C
$GPGSV,3,2,10,11,55,318,42,12,,,33,17,26,150,29,19,51,154,35*41
$GPGSV,3,3,10,20,46,259,42,25,12,305,14*77
$GPGLL,3733.39422,N,12712.01167,E,065150.00,A,A*62
$GPRMC,065151.00,A,3733.39647,N,12712.00871,E,11.462,314.17,180524,,,A*50
$GPVTG,314.17,T,,M,11.462,N,21.228,K,A*36
$GPGGA,065151.00,3733.39647,N,12712.00871,E,1,07,1.02,40.1,M,18.9,M,,*69
$GPGSA,A,3,06,11,19,09,20,17,04,,,,,,1.77,1.02,1.45*07
$GPGSV,3,1,10,04,17,043,29,05,,,26,06,63,048,43,09,45,077,26*41
$GPGSV,3,2,10,11,55,318,42,12,,,29,17,26,150,28,19,51,154,34*4A
$GPGSV,3,3,10,20,46,259,42,25,12,305,10*73
$GPGLL,3733.39647,N,12712.00871,E,065151.00,A,A*6D
$GPRMC,065152.00,A,3733.39857,N,12712.00614,E,10.209,317.00,180524,,,A*5E
$GPVTG,317.00,T,,M,10.209,N,18.907,K,A*35
$GPGGA,065152.00,3733.39857,N,12712.00614,E,1,07,1.34,39.7,M,18.9,M,,*65
$GPGSA,A,3,06,11,19,09,20,17,04,,,,,,2.72,1.34,2.37*02
$GPGSV,3,1,10,04,17,043,30,05,,,26,06,63,048,43,09,45,077,35*4B
$GPGSV,3,2,10,11,55,318,42,12,,,26,17,26,150,32,19,51,154,34*4E
$GPGSV,3,3,10,20,46,259,43,25,12,305,09*7A
$GPGLL,3733.39857,N,12712.00614,E,065152.00,A,A*6C
$GPRMC,065153.00,A,3733.40060,N,12712.00426,E,8.735,325.43,180524,,,A*6B
$GPVTG,325.43,T,,M,8.735,N,16.177,K,A*01
$GPGGA,065153.00,3733.40060,N,12712.00426,E,1,07,1.34,39.8,M,18.9,M,,*6A
$GPGSA,A,3,06,11,19,09,20,17,04,,,,,,2.72,1.34,2.37*02
$GPGSV,3,1,10,04,17,043,27,05,,,25,06,63,048,44,09,45,077,37*4B
$GPGSV,3,2,10,11,55,318,40,12,,,25,17,26,150,30,19,51,154,30*49
$GPGSV,3,3,10,20,46,259,38,25,12,305,08*77
$GPGLL,3733.40060,N,12712.00426,E,065153.00,A,A*6C
$GPRMC,065154.00,A,3733.40258,N,12712.00346,E,7.081,341.73,180524,,,A*62
$GPVTG,341.73,T,,M,7.081,N,13.115,K,A*06
$GPGGA,065154.00,3733.40258,N,12712.00346,E,1,07,1.02,39.7,M,18.9,M,,*6F
$GPGSA,A,3,06,11,19,09,20,17,04,,,,,,1.77,1.02,1.45*07
$GPGSV,3,1,10,04,17,043,35,05,,,24,06,63,048,34,09,45,077,37*4E
$GPGSV,3,2,10,11,55,318,42,12,,,42,17,26,150,31,19,51,154,37*4C
$GPGSV,3,3,10,20,46,259,35,25,12,305,07*75
$GPGLL,3733.40258,N,12712.00346,E,065154.00,A,A*63
$GPRMC,065155.00,A,3733.40452,N,12712.00369,E,6.986,3.20,180524,,,A*6E
$GPVTG,3.20,T,,M,6.986,N,12.938,K,A*0C
$GPGGA,065155.00,3733.40452,N,12712.00369,E,1,07,1.02,39.3,M,18.9,M,,*6B
$GPGSA,A,3,06,11,19,09,20,17,04,,,,,,1.77,1.02,1.45*07
$GPGSV,3,1,10,04,17,043,35,05,,,22,06,63,048,38,09,45,077,42*46
$GPGSV,3,2,10,11,55,318,38,12,,,31,17,26,150,34,19,51,154,31*46
$GPGSV,3,3,10,20,46,259,35,25,12,305,07*75
$GPGLL,3733.40452,N,12712.00369,E,065155.00,A,A*63
$GPRMC,065156.00,A,3733.40635,N,12712.00484,E,8.150,27.52,180524,,,A*54
$GPVTG,27.52,T,,M,8.150,N,15.094,K,A*3A
$GPGGA,065156.00,3733.40635,N,12712.00484,E,1,07,1.11,40.2,M,18.9,M,,*62
$GPGSA,A,3,06,11,19,09,20,17,04,,,,,,2.04,1.11,1.71*05
$GPGSV,3,1,10,04,17,043,30,05,,,22,06,63,048,41,09,45,077,42*4D
$GPGSV,3,2,10,11,55,318,38,12,,,34,17,26,150,31,19,51,154,41*41
$GPGSV,3,3,10,20,46,259,38,25,12,305,07*78
$GPGLL,3733.40635,N,12712.00484,E,065156.00,A,A*67
$GPRMC,065157.00,A,3733.40818,N,12712.00706,E,9.475,42.01,180524,,,A*5B
$GPVTG,42.01,T,,M,9.475,N,17.547,K,A*35
$GPGGA,065157.00,3733.40818,N,12712.00706,E,1,07,1.09,40.4,M,18.9,M,,*64
$GPGSA,A,3,06,11,19,09,20,17,04,,,,,,1.85,1.09,1.50*05
$GPGSV,3,1,10,04,17,043,34,05,,,25,06,63,048,41,09,45,077,40*4C
$GPGSV,3,2,10,11,55,318,40,12,,,23,17,26,150,38,19,51,154,40*40
$GPGSV,3,3,10,20,46,259,37,25,12,305,*70
$GPGLL,3733.40818,N,12712.00706,E,065157.00,A,A*6E
$GPRMC,065158.00,A,3733.41026,N,12712.00966,E,10.685,43.32,180524,,,A*6C
$GPVTG,43.32,T,,M,10.685,N,19.789,K,A*0F
$GPGGA,065158.00,3733.41026,N,12712.00966,E,1,07,1.35,40.1,M,18.9,M,,*6D
$GPGSA,A,3,06,11,19,09,20,17,04,,,,,,2.59,1.35,2.21*0D
$GPGSV,3,1,10,04,17,043,36,05,,,30,06,63,048,41,09,45,077,40*4A
$GPGSV,3,2,10,11,55,318,40,12,,,21,17,26,150,31,19,51,154,38*44
$GPGSV,3,3,10,20,46,259,37,25,12,305,*70
$GPGLL,3733.41026,N,12712.00966,E,065158.00,A,A*6D
$GPRMC,065159.00,A,3733.41248,N,12712.01244,E,11.139,45.05,180524,,,A*6E
$GPVTG,45.05,T,,M,11.139,N,20.629,K,A*0D
$GPGGA,065159.00,3733.41248,N,12712.01244,E,1,07,1.02,40.1,M,18.9,M,,*68
$GPGSA,A,3,06,11,19,09,20,17,04,,,,,,1.77,1.02,1.45*07
$GPGSV,3,1,10,04,17,043,36,05,,,31,06,63,048,40,09,45,077,37*4A
$GPGSV,3,2,10,11,55,318,39,12,,,18,17,26,150,30,19,51,154,39*40
$GPGSV,3,3,10,20,46,259,38,25,12,305,*7F
$GPGLL,3733.41248,N,12712.01244,E,065159.00,A,A*6C
$GPRMC,065200.00,A,3733.41460,N,12712.01525,E,10.890,45.36,180524,,,A*66
$GPVTG,45.36,T,,M,10.890,N,20.168,K,A*04
$GPGGA,065200.00,3733.41460,N,12712.01525,E,1,07,1.35,40.0,M,18.9,M,,*6E
$GPGSA,A,3,06,11,19,09,20,17,04,,,,,,2.59,1.35,2.21*0D
$GPGSV,3,1,10,04,17,043,37,05,,,31,06,63,048,40,09,45,077,40*4B
$GPGSV,3,2,10,11,55,318,41,12,,,17,17,26,150,30,19,51,154,39*40
$GPGSV,3,3,10,20,46,259,36,25,12,305,*71
$GPGLL,3733.41460,N,12712.01525,E,065200.00,A,A*6F
$GPRMC,065201.00,A,3733.41685,N,12712.01815,E,11.438,45.30,180524,,,A*69
$GPVTG,45.30,T,,M,11.438,N,21.183,K,A*09
$GPGGA,065201.00,3733.41685,N,12712.01815,E,1,07,1.35,39.7,M,18.9,M,,*61
$GPGSA,A,3,06,11,19,09,20,17,04,,,,,,2.59,1.35,2.21*0D
$GPGSV,3,1,10,04,17,043,36,05,,,29,06,62,048,39,09,45,077,40*4C
$GPGSV,3,2,10,11,55,318,41,12,,,17,17,26,150,29,19,51,154,40*46
$GPGSV,3,3,10,20,46,259,37,25,12,305,*70
$GPGLL,3733.41685,N,12712.01815,E,065201.00,A,A*69
$GPRMC,065202.00,A,3733.41921,N,12712.02111,E,11.905,44.34,180524,,,A*63
$GPVTG,44.34,T,,M,11.905,N,22.048,K,A*0A
$GPGGA,065202.00,3733.41921,N,12712.02111,E,1,07,1.09,39.5,M,18.9,M,,*60
$GPGSA,A,3,06,11,19,09,20,17,04,,,,,,1.85,1.09,1.50*05
$GPGSV,3,1,10,04,17,043,36,05,,,28,06,62,048,40,09,45,077,40*43
$GPGSV,3,2,10,11,55,318,41,12,,,18,17,26,150,32,19,51,154,37*43
$GPGSV,3,3,10,20,46,259,37,25,12,305,*70
$GPGLL,3733.41921,N,12712.02111,E,065202.00,A,A*65
$GPRMC,065203.00,A,3733.42168,N,12712.02416,E,12.431,43.81,180524,,,A*66
$GPVTG,43.81,T,,M,12.431,N,23.022,K,A*07
$GPGGA,065203.00,3733.42168,N,12712.02416,E,1,07,1.02,39.5,M,18.9,M,,*6E
$GPGSA,A,3,06,11,19,09,20,17,04,,,,,,1.77,1.02,1.45*07
$GPGSV,3,1,10,04,17,043,36,05,,,27,06,62,048,40,09,45,077,38*43
$GPGSV,3,2,10,11,55,318,42,12,,,18,17,26,150,29,19,51,154,35*48
$GPGSV,3,3,10,20,46,259,37,25,12,305,*70
$GPGLL,3733.42168,N,12712.02416,E,065203.00,A,A*60
$GPRMC,065204.00,A,3733.42443,N,12712.02738,E,13.652,42.38,180524,,,A*67
$GPVTG,42.38,T,,M,13.652,N,25.284,K,A*0A
$GPGGA,065204.00,3733.42443,N,12712.02738,E,1,07,1.09,39.6,M,18.9,M,,*62
$GPGSA,A,3,06,11,19,09,20,17,04,,,,,,1.85,1.09,1.50*05
$GPGSV,3,1,10,04,17,043,34,05,,,28,06,62,048,40,09,45,077,40*41
$GPGSV,3,2,10,11,55,318,41,12,,,21,17,26,150,29,19,51,154,42*41
$GPGSV,3,3,10,20,46,259,37,25,12,305,*70
$GPGLL,3733.42443,N,12712.02738,E,065204.00,A,A*64
$GPRMC,065205.00,A,3733.42731,N,12712.03065,E,13.746,41.40,180524,,,A*66
$GPVTG,41.40,T,,M,13.746,N,25.457,K,A*0A
$GPGGA,065205.00,3733.42731,N,12712.03065,E,1,07,1.35,39.8,M,18.9,M,,*6A
$GPGSA,A,3,06,11,19,09,20,17,04,,,,,,2.59,1.35,2.21*0D
$GPGSV,3,1,10,04,17,043,34,05,,,19,06,62,048,42,09,45,077,41*40
$GPGSV,3,2,10,11,55,318,41,12,,,30,17,26,150,30,19,51,154,41*4A
$GPGSV,3,3,10,20,46,259,38,25,12,305,*7F
$GPGLL,3733.42731,N,12712.03065,E,065205.00,A,A*6D
$GPRMC,065206.00,A,3733.43031,N,12712.03402,E,14.269,42.41,180524,,,A*6B
$GPVTG,42.41,T,,M,14.269,N,26.426,K,A*02
$GPGGA,065206.00,3733.43031,N,12712.03402,E,1,07,1.11,40.1,M,18.9,M,,*6B
$GPGSA,A,3,06,11,19,09,20,17,04,,,,,,2.04,1.11,1.71*05
$GPGSV,3,1,10,04,17,043,35,05,,,29,06,62,048,42,09,45,077,40*43
$GPGSV,3,2,10,11,55,318,42,12,,,18,17,26,150,36,19,51,154,41*45
$GPGSV,3,3,10,20,46,259,38,25,12,305,*7F
$GPGLL,3733.43031,N,12712.03402,E,065206.00,A,A*6D
$GPRMC,065207.00,A,3733.43337,N,12712.03766,E,15.391,43.30,180524,,,A*6E
$GPVTG,43.30,T,,M,15.391,N,28.504,K,A*0D
